$GPRMC,142334.0,A,5139.934977,N,03914.620455,E,5.6,109.5,030316,,,A*62
$GPGSA,A,2,13,15,18,28,,,,,,,,,1.3,0.9,0.9*34
$GNGSA,A,2,13,15,18,28,,,,,,,,,1.3,0.9,0.9*2A
$GNGSA,A,2,65,71,72,82,83,,,,,,,,1.3,0.9,0.9*2E
$GPGSV,4,1,13,01,10,070,21,10,02,345,15,11,16,054,29,13,58,215,18*72
$GPGSV,4,2,13,15,43,285,16,17,45,146,17,18,09,316,24,19,19,172,20*70
$GPGSV,4,3,13,20,05,258,13,24,16,292,15,28,66,061,17,07,02,111,*75
$GPGSV,4,4,13,30,31,108,*43
$GLGSV,3,1,10,74,35,291,16,73,71,019,13,82,37,047,26,65,16,338,22*63
$GLGSV,3,2,10,83,37,123,13,81,04,011,15,71,20,230,12,72,35,286,14*6D
$GLGSV,3,3,10,80,30,082,,84,02,164,*68
$GPGGA,142335.0,5139.935124,N,03914.621287,E,1,04,0.9,85.0,M,13.0,M,,*6D
$GPVTG,107.7,T,107.7,M,4.7,N,8.7,K,A*2F
$GPRMC,142335.0,A,5139.935124,N,03914.621287,E,4.7,107.7,030316,,,A*68
$GPGSA,A,2,13,15,18,28,,,,,,,,,1.3,0.9,0.9*34
$GNGSA,A,2,13,15,18,28,,,,,,,,,1.3,0.9,0.9*2A
$GNGSA,A,2,65,71,72,82,83,,,,,,,,1.3,0.9,0.9*2E
$GPGSV,4,1,13,01,10,070,21,10,02,345,17,11,16,054,30,13,58,215,18*78
$GPGSV,4,2,13,15,43,285,16,17,45,146,17,18,09,316,24,19,19,172,20*70
$GPGSV,4,3,13,20,05,258,13,24,16,292,15,28,66,061,17,07,02,111,*75
$GPGSV,4,4,13,30,31,108,*43
$GLGSV,3,1,10,74,35,291,16,73,71,019,13,82,37,047,24,65,16,338,23*60
$GLGSV,3,2,10,83,37,123,13,81,04,011,15,71,20,230,12,72,35,286,16*6F
$GLGSV,3,3,10,80,30,082,,84,02,164,*68
$GPGGA,142336.0,5139.934493,N,03914.622729,E,1,04,1.1,85.7,M,13.0,M,,*6A
$GPVTG,112.0,T,112.0,M,4.8,N,8.9,K,A*2E
$GPRMC,142336.0,A,5139.934493,N,03914.622729,E,4.8,112.0,030316,,,A*6D
$GPGSA,A,2,13,15,18,28,,,,,,,,,1.5,1.1,0.9*3B
$GNGSA,A,2,13,15,18,28,,,,,,,,,1.5,1.1,0.9*25
$GNGSA,A,2,65,72,82,83,,,,,,,,,1.5,1.1,0.9*27
$GPGSV,4,1,13,01,10,070,15,10,02,345,18,11,16,054,32,13,58,215,16*7C
$GPGSV,4,2,13,15,43,285,16,17,45,146,17,18,09,316,23,19,19,172,16*72
$GPGSV,4,3,13,20,05,258,13,24,16,292,15,28,66,061,19,07,02,111,*7B
$GPGSV,4,4,13,30,31,108,*43
$GLGSV,3,1,10,74,35,291,16,73,71,019,13,82,37,047,21,65,16,338,24*62
$GLGSV,3,2,10,83,37,123,13,81,04,011,15,71,20,230,12,72,35,286,20*6A
$GLGSV,3,3,10,80,30,082,,84,02,164,*68
$GPGGA,142337.0,5139.934222,N,03914.623727,E,1,04,1.1,86.2,M,13.0,M,,*6E
$GPVTG,114.6,T,114.6,M,4.3,N,8.0,K,A*2C
$GPRMC,142337.0,A,5139.934222,N,03914.623727,E,4.3,114.6,030316,,,A*64
$GPGSA,A,2,13,15,18,28,,,,,,,,,1.5,1.1,0.9*3B
$GNGSA,A,2,13,15,18,28,,,,,,,,,1.5,1.1,0.9*25
$GNGSA,A,2,65,72,82,83,,,,,,,,,1.5,1.1,0.9*27
$GPGSV,3,1,12,01,10,070,15,10,02,345,18,11,16,054,31,13,58,215,16*79
$GPGSV,3,2,12,17,45,146,17,18,09,316,21,19,19,172,20,20,05,258,13*72
$GPGSV,3,3,12,24,16,292,14,28,66,061,19,07,02,111,,30,31,108,*7E
$GLGSV,3,1,10,74,35,291,14,73,71,019,13,82,37,047,25,65,16,338,21*61
$GLGSV,3,2,10,83,37,123,13,81,04,011,15,71,20,230,12,72,35,286,20*6A
$GLGSV,3,3,10,80,30,082,,84,02,164,*68
$GPGGA,142338.0,5139.933779,N,03914.624532,E,1,04,1.1,86.3,M,13.0,M,,*6D
$GPVTG,121.5,T,121.5,M,3.7,N,6.8,K,A*29
$GPRMC,142338.0,A,5139.933779,N,03914.624532,E,3.7,121.5,030316,,,A*60
$GPGSA,A,2,13,15,18,28,,,,,,,,,1.4,1.1,0.9*3A
$GNGSA,A,2,13,15,18,28,,,,,,,,,1.4,1.1,0.9*24
$GNGSA,A,2,65,72,74,82,83,,,,,,,,1.4,1.1,0.9*25
$GPGSV,3,1,12,01,10,070,16,10,02,345,15,11,16,054,29,13,58,215,16*7E
$GPGSV,3,2,12,17,45,146,17,18,09,316,23,19,19,172,18,20,05,258,13*7B
$GPGSV,3,3,12,24,16,292,20,28,66,061,19,07,02,111,,30,31,108,*79
$GLGSV,3,1,10,74,35,291,14,73,71,019,13,82,37,047,22,65,16,338,23*64
$GLGSV,3,2,10,83,37,123,13,81,04,011,15,71,20,230,12,72,35,286,20*6A
$GLGSV,3,3,10,80,30,082,,84,02,164,*68
$GPGGA,142339.0,5139.933361,N,03914.625252,E,1,04,1.4,86.9,M,13.0,M,,*6E
$GPVTG,128.4,T,128.4,M,3.2,N,5.9,K,A*2E
$GPRMC,142339.0,A,5139.933361,N,03914.625252,E,3.2,128.4,030316,,,A*61
$GPGSA,A,2,13,15,18,28,,,,,,,,,1.7,1.4,1.0*34
$GNGSA,A,2,13,15,18,28,,,,,,,,,1.7,1.4,1.0*2A
$GNGSA,A,2,65,72,74,82,,,,,,,,,1.7,1.4,1.0*20
$GPGSV,3,1,12,01,10,070,21,10,02,345,15,11,16,054,27,13,58,215,19*7B
$GPGSV,3,2,12,17,45,146,17,18,09,316,25,19,19,172,18,20,05,258,13*7D
$GPGSV,3,3,12,24,16,292,20,28,66,061,14,07,02,111,,30,31,108,*74
$GLGSV,3,1,10,74,35,291,14,73,71,019,13,82,37,047,22,65,16,338,25*62
$GLGSV,3,2,10,83,37,123,13,81,04,011,15,71,20,230,12,72,35,286,20*6A
$GLGSV,3,3,10,80,30,082,,84,02,164,*68
$GPGGA,142340.0,5139.933255,N,03914.625976,E,1,04,1.4,88.1,M,13.0,M,,*6D
$GPVTG,127.3,T,127.3,M,3.0,N,5.5,K,A*20
$GPRMC,142340.0,A,5139.933255,N,03914.625976,E,3.0,127.3,030316,,,A*6E
$GPGSA,A,2,13,15,18,28,,,,,,,,,1.7,1.4,1.0*34
$GNGSA,A,2,13,15,18,28,,,,,,,,,1.7,1.4,1.0*2A
$GNGSA,A,2,65,72,74,82,,,,,,,,,1.7,1.4,1.0*20
$GPGSV,3,1,11,01,10,070,19,10,02,345,18,11,16,054,27,13,58,215,19*7E
$GPGSV,3,2,11,17,45,146,17,18,09,316,25,19,19,172,18,24,16,292,18*75
$GPGSV,3,3,11,28,66,061,14,30,31,108,13,07,02,111,*4F
$GLGSV,3,1,10,74,35,291,14,73,71,019,13,82,37,047,23,65,16,338,21*67
$GLGSV,3,2,10,83,37,123,13,81,04,011,15,71,20,230,13,72,35,286,20*6B
$GLGSV,3,3,10,80,30,082,,84,02,164,*68
$GPGGA,142341.0,5139.933297,N,03914.626314,E,1,05,0.9,90.4,M,13.0,M,,*6E
$GPVTG,130.2,T,130.2,M,2.6,N,4.9,K,A*2A
$GPRMC,142341.0,A,5139.933297,N,03914.626314,E,2.6,130.2,030316,,,A*6C
$GPGSA,A,2,13,15,18,28,30,,,,,,,,1.3,0.9,0.9*37
$GNGSA,A,2,13,15,18,28,30,,,,,,,,1.3,0.9,0.9*29
$GNGSA,A,2,65,71,72,74,82,,,,,,,,1.3,0.9,0.9*26
$GPGSV,4,1,13,01,10,070,20,10,02,345,18,11,16,054,28,13,58,215,19*7E
$GPGSV,4,2,13,15,43,285,15,17,45,146,17,18,09,316,25,19,19,172,18*79
$GPGSV,4,3,13,24,16,292,18,28,66,061,14,30,31,108,13,07,02,111,*7B
$GPGSV,4,4,13,20,05,258,*43
$GLGSV,3,1,09,74,35,291,14,82,37,047,23,65,16,338,26,83,37,123,13*6D
$GLGSV,3,2,09,81,04,011,15,71,20,230,13,72,35,286,20,80,30,082,*6F
$GLGSV,3,3,09,84,02,164,*51
$GPGGA,142342.0,5139.933270,N,03914.626337,E,1,05,0.9,90.6,M,13.0,M,,*67
$GPVTG,134.2,T,134.2,M,2.3,N,4.3,K,A*25
$GPRMC,142342.0,A,5139.933270,N,03914.626337,E,2.3,134.2,030316,,,A*66
$GPGSA,A,2,13,15,18,28,30,,,,,,,,1.3,0.9,0.9*37
$GNGSA,A,2,13,15,18,28,30,,,,,,,,1.3,0.9,0.9*29
$GNGSA,A,2,65,71,72,74,82,,,,,,,,1.3,0.9,0.9*26
$GPGSV,4,1,13,01,10,070,20,10,02,345,21,11,16,054,28,13,58,215,19*74
$GPGSV,4,2,13,15,43,285,18,17,45,146,15,18,09,316,22,19,19,172,14*7D
$GPGSV,4,3,13,20,05,258,15,24,16,292,18,28,66,061,15,30,31,108,13*72
$GPGSV,4,4,13,07,02,111,*4F
$GLGSV,3,1,10,74,35,291,14,82,37,047,21,65,16,338,28,83,37,123,13*69
$GLGSV,3,2,10,81,04,011,15,71,20,230,13,72,35,286,20,73,71,019,*6C
$GLGSV,3,3,10,80,30,082,,84,02,164,*68
$GPGGA,142343.0,5139.933167,N,03914.626511,E,1,06,0.9,87.5,M,13.0,M,,*67
$GPVTG,137.2,T,137.2,M,2.0,N,3.8,K,A*2A
$GPRMC,142343.0,A,5139.933167,N,03914.626511,E,2.0,137.2,030316,,,A*60
$GPGSA,A,2,13,15,18,20,28,30,,,,,,,1.2,0.9,0.8*35
$GNGSA,A,2,13,15,18,20,28,30,,,,,,,1.2,0.9,0.8*2B
$GNGSA,A,2,65,71,72,74,82,,,,,,,,1.2,0.9,0.8*26
$GPGSV,4,1,13,01,10,070,16,10,02,345,20,11,16,054,28,13,58,215,19*70
$GPGSV,4,2,13,15,43,285,18,17,45,146,15,18,09,316,22,19,19,172,14*7D
$GPGSV,4,3,13,20,05,258,16,24,16,292,16,28,66,061,15,30,31,108,13*7F
$GPGSV,4,4,13,07,02,111,*4F
$GLGSV,3,1,10,74,35,291,14,82,37,047,21,65,16,338,29,83,37,123,12*69
$GLGSV,3,2,10,81,04,011,10,71,20,230,13,72,35,286,20,73,71,019,*69
$GLGSV,3,3,10,80,30,082,,84,02,164,*68
$GPGGA,142344.0,5139.932887,N,03914.626602,E,1,06,0.8,87.1,M,13.0,M,,*62
$GPVTG,144.0,T,144.0,M,1.9,N,3.6,K,A*2E
$GPRMC,142344.0,A,5139.932887,N,03914.626602,E,1.9,144.0,030316,,,A*6C
$GPGSA,A,2,13,15,18,20,28,30,,,,,,,1.1,0.8,0.8*37
$GNGSA,A,2,13,15,18,20,28,30,,,,,,,1.1,0.8,0.8*29
$GNGSA,A,2,65,71,72,74,82,83,,,,,,,1.1,0.8,0.8*2F
$GPGSV,4,1,13,01,10,070,16,10,02,345,20,11,16,054,28,13,58,215,14*7D
$GPGSV,4,2,13,15,43,285,18,17,45,146,15,18,09,316,23,19,19,172,14*7C
$GPGSV,4,3,13,20,05,258,16,24,16,292,18,28,66,061,15,30,31,108,15*77
$GPGSV,4,4,13,07,02,111,*4F
$GLGSV,3,1,10,74,35,291,14,82,37,047,19,65,16,338,28,83,37,123,12*63
$GLGSV,3,2,10,81,04,011,10,71,20,230,13,72,35,286,20,73,71,019,*69
$GLGSV,3,3,10,80,30,082,,84,02,164,*68
$GPGGA,142345.0,5139.932552,N,03914.626294,E,1,06,0.8,88.2,M,13.0,M,,*61
$GPVTG,151.5,T,151.5,M,2.0,N,3.7,K,A*25
$GPRMC,142345.0,A,5139.932552,N,03914.626294,E,2.0,151.5,030316,,,A*68
$GPGSA,A,2,13,15,18,20,28,30,,,,,,,1.2,0.8,0.8*34
$GNGSA,A,2,13,15,18,20,28,30,,,,,,,1.2,0.8,0.8*2A
$GNGSA,A,2,65,71,72,82,83,,,,,,,,1.2,0.8,0.8*2F
$GPGSV,4,1,13,01,10,070,16,10,02,345,21,11,16,054,28,13,58,215,14*7C
$GPGSV,4,2,13,15,43,285,16,17,45,146,15,18,09,316,24,19,19,172,14*75
$GPGSV,4,3,13,20,05,258,16,24,16,292,18,28,66,061,15,30,31,108,15*77
$GPGSV,4,4,13,07,02,111,*4F
$GLGSV,3,1,10,74,35,291,14,82,37,047,19,65,16,338,26,83,37,123,12*6D
$GLGSV,3,2,10,81,04,011,10,71,20,230,13,72,35,286,20,73,71,019,*69
$GLGSV,3,3,10,80,30,082,,84,02,164,*68
$GPGGA,142346.0,5139.932196,N,03914.626055,E,1,06,0.8,89.5,M,13.0,M,,*67
$GPVTG,152.3,T,152.3,M,2.1,N,4.0,K,A*24
$GPRMC,142346.0,A,5139.932196,N,03914.626055,E,2.1,152.3,030316,,,A*6C
$GPGSA,A,2,13,15,18,20,28,30,,,,,,,1.2,0.8,0.8*34
$GNGSA,A,2,13,15,18,20,28,30,,,,,,,1.2,0.8,0.8*2A
$GNGSA,A,2,65,71,72,82,83,,,,,,,,1.2,0.8,0.8*2F
$GPGSV,4,1,13,01,10,070,16,10,02,345,19,11,16,054,29,13,58,215,16*74
$GPGSV,4,2,13,15,43,285,16,17,45,146,15,18,09,316,23,19,19,172,14*72
$GPGSV,4,3,13,20,05,258,16,24,16,292,17,28,66,061,15,30,31,108,17*7A
$GPGSV,4,4,13,07,02,111,*4F
$GLGSV,3,1,10,74,35,291,14,82,37,047,19,65,16,338,29,83,37,123,12*62
$GLGSV,3,2,10,81,04,011,10,71,20,230,13,72,35,286,20,73,71,019,*69
$GLGSV,3,3,10,80,30,082,,84,02,164,*68
$GPGGA,142347.0,5139.932269,N,03914.625248,E,1,06,0.8,92.1,M,13.0,M,,*66
$GPVTG,156.4,T,156.4,M,1.8,N,3.3,K,A*2A
$GPRMC,142347.0,A,5139.932269,N,03914.625248,E,1.8,156.4,030316,,,A*6A
$GPGSA,A,2,13,15,18,20,28,30,,,,,,,1.2,0.8,0.8*34
$GNGSA,A,2,13,15,18,20,28,30,,,,,,,1.2,0.8,0.8*2A
$GNGSA,A,2,65,71,72,82,83,,,,,,,,1.2,0.8,0.8*2F
$GPGSV,4,1,13,01,10,070,16,10,02,345,18,11,16,054,28,13,58,215,16*74
$GPGSV,4,2,13,15,43,285,17,17,45,146,17,18,09,316,23,19,19,172,14*71
$GPGSV,4,3,13,20,05,258,16,24,16,292,20,28,66,061,14,30,31,108,17*7F
$GPGSV,4,4,13,07,02,111,*4F
$GLGSV,3,1,10,74,35,291,14,82,37,047,18,65,16,338,29,83,37,123,12*63
$GLGSV,3,2,10,81,04,011,10,71,20,230,13,72,35,286,20,73,71,019,*69
$GLGSV,3,3,10,80,30,082,,84,02,164,*68
$GPGGA,142348.0,5139.932203,N,03914.624424,E,1,06,1.0,88.9,M,13.0,M,,*62
$GPVTG,156.4,T,156.4,M,1.3,N,2.4,K,A*27
$GPRMC,142348.0,A,5139.932203,N,03914.624424,E,1.3,156.4,030316,,,A*6F
$GPGSA,A,2,13,15,18,20,28,30,,,,,,,1.3,1.0,0.8*3C
$GNGSA,A,2,13,15,18,20,28,30,,,,,,,1.3,1.0,0.8*22
$GNGSA,A,2,65,72,82,83,,,,,,,,,1.3,1.0,0.8*21
$GPGSV,4,1,13,01,10,070,16,10,02,345,19,11,16,054,29,13,58,215,18*7A
$GPGSV,4,2,13,15,43,285,17,17,45,146,17,18,09,316,24,19,19,172,14*76
$GPGSV,4,3,13,20,05,258,17,24,16,292,20,28,66,061,14,30,31,108,17*7E
$GPGSV,4,4,13,07,02,111,*4F
$GLGSV,3,1,10,74,35,291,14,82,37,047,18,65,16,338,30,83,37,123,12*6B
$GLGSV,3,2,10,81,04,011,10,71,20,230,13,72,35,286,16,73,71,019,*6C
$GLGSV,3,3,10,80,30,082,,84,02,164,*68
$GPGGA,142349.0,5139.932223,N,03914.623723,E,1,06,1.0,87.5,M,13.0,M,,*61
$GPVTG,156.4,T,156.4,M,0.8,N,1.4,K,A*2E
$GPRMC,142349.0,A,5139.932223,N,03914.623723,E,0.8,156.4,030316,,,A*65
$GPGSA,A,2,13,15,18,20,28,30,,,,,,,1.3,1.0,0.8*3C
$GNGSA,A,2,13,15,18,20,28,30,,,,,,,1.3,1.0,0.8*22
$GNGSA,A,2,65,72,82,83,,,,,,,,,1.3,1.0,0.8*21
$GPGSV,4,1,13,01,10,070,16,10,02,345,17,11,16,054,28,13,58,215,18*75
$GPGSV,4,2,13,15,43,285,16,17,45,146,17,18,09,316,25,19,19,172,14*76
$GPGSV,4,3,13,20,05,258,16,24,16,292,20,28,66,061,14,30,31,108,16*7E
$GPGSV,4,4,13,07,02,111,*4F
$GLGSV,3,1,10,74,35,291,14,82,37,047,19,65,16,338,28,83,37,123,12*63
$GLGSV,3,2,10,81,04,011,10,71,20,230,13,72,35,286,16,73,71,019,*6C
$GLGSV,3,3,10,80,30,082,,84,02,164,*68
$GPGGA,142350.0,5139.932734,N,03914.622628,E,1,06,1.0,92.9,M,13.0,M,,*69
$GPVTG,156.4,T,156.4,M,0.0,N,0.0,K,A*23
$GPRMC,142350.0,A,5139.932734,N,03914.622628,E,0.0,156.4,030316,,,A*6D
$GPGSA,A,2,13,15,18,20,28,30,,,,,,,1.3,1.0,0.8*3C
$GNGSA,A,2,13,15,18,20,28,30,,,,,,,1.3,1.0,0.8*22
$GNGSA,A,2,65,72,82,83,,,,,,,,,1.3,1.0,0.8*21
$GPGSV,4,1,13,01,10,070,16,10,02,345,17,11,16,054,28,13,58,215,18*75
$GPGSV,4,2,13,15,43,285,16,17,45,146,18,18,09,316,24,19,19,172,14*78
$GPGSV,4,3,13,20,05,258,17,24,16,292,18,28,66,061,14,30,31,108,16*74
$GPGSV,4,4,13,07,02,111,*4F
$GLGSV,3,1,10,74,35,291,14,73,71,019,12,82,37,047,22,65,16,338,28*6E
$GLGSV,3,2,10,83,37,123,12,81,04,011,10,71,20,230,13,72,35,286,16*6A
$GLGSV,3,3,10,80,30,082,,84,02,164,*68
$GPGGA,142351.0,5139.933168,N,03914.621874,E,1,06,1.1,92.5,M,13.0,M,,*6F
$GPVTG,156.4,T,156.4,M,0.3,N,0.6,K,A*26
$GPRMC,142351.0,A,5139.933168,N,03914.621874,E,0.3,156.4,030316,,,A*65
$GPGSA,A,2,13,15,18,20,28,30,,,,,,,1.4,1.1,0.8*3A
$GNGSA,A,2,13,15,18,20,28,30,,,,,,,1.4,1.1,0.8*24
$GNGSA,A,2,65,72,82,,,,,,,,,,1.4,1.1,0.8*2C
$GPGSV,4,1,13,01,10,070,16,10,02,345,17,11,16,054,27,13,58,215,19*7B
$GPGSV,4,2,13,15,43,285,16,17,45,146,18,18,09,316,25,19,19,172,14*79
$GPGSV,4,3,13,20,05,258,17,24,16,292,18,28,66,061,14,30,31,108,16*74
$GPGSV,4,4,13,07,02,111,*4F
$GLGSV,3,1,10,74,35,291,14,73,71,019,12,82,37,047,22,65,16,338,29*6F
$GLGSV,3,2,10,83,37,123,12,81,04,011,10,71,20,230,13,72,35,286,16*6A
$GLGSV,3,3,10,80,30,082,,84,02,164,*68
$GPGGA,142352.0,5139.933650,N,03914.621512,E,1,06,1.1,93.6,M,13.0,M,,*6F
$GPVTG,156.4,T,156.4,M,0.5,N,0.9,K,A*2F
$GPRMC,142352.0,A,5139.933650,N,03914.621512,E,0.5,156.4,030316,,,A*61
$GPGSA,A,2,13,15,18,20,28,30,,,,,,,1.4,1.1,0.8*3A
$GNGSA,A,2,13,15,18,20,28,30,,,,,,,1.4,1.1,0.8*24
$GNGSA,A,2,65,72,82,,,,,,,,,,1.4,1.1,0.8*2C
$GPGSV,4,1,13,01,10,070,13,10,02,345,18,11,16,054,30,13,58,215,21*7C
$GPGSV,4,2,13,15,43,285,16,17,45,146,18,18,09,316,25,19,19,172,14*79
$GPGSV,4,3,13,20,05,258,17,24,16,292,16,28,66,061,14,30,31,108,16*7A
$GPGSV,4,4,13,07,02,111,*4F
$GLGSV,3,1,10,74,35,291,14,73,71,019,12,82,37,047,22,65,16,338,29*6F
$GLGSV,3,2,10,83,37,123,12,81,04,011,10,71,20,230,13,72,35,286,18*64
$GLGSV,3,3,10,80,30,082,,84,02,164,*68
$GPGGA,142353.0,5139.934042,N,03914.621043,E,1,06,0.9,95.2,M,13.0,M,,*66
$GPVTG,156.4,T,156.4,M,0.7,N,1.3,K,A*26
$GPRMC,142353.0,A,5139.934042,N,03914.621043,E,0.7,156.4,030316,,,A*61
$GPGSA,A,2,13,15,18,20,28,30,,,,,,,1.2,0.9,0.8*35
$GNGSA,A,2,13,15,18,20,28,30,,,,,,,1.2,0.9,0.8*2B
$GNGSA,A,2,65,71,72,82,,,,,,,,,1.2,0.9,0.8*25
$GPGSV,4,1,13,01,10,068,23,10,03,345,19,11,16,054,29,13,58,215,21*7E
$GPGSV,4,2,13,15,43,285,17,17,45,146,19,18,09,316,25,19,19,172,12*7F
$GPGSV,4,3,13,20,04,258,17,24,16,292,16,28,66,061,14,30,31,108,16*7B
$GPGSV,4,4,13,07,02,111,*4F
$GLGSV,3,1,09,73,71,019,12,82,37,047,21,65,16,338,26,83,37,123,12*6D
$GLGSV,3,2,09,81,04,011,10,71,20,229,13,72,35,286,18,80,29,082,*61
$GLGSV,3,3,09,84,02,164,*51
$GPGGA,142354.0,5139.934205,N,03914.620867,E,1,06,0.9,95.4,M,13.0,M,,*69
$GPVTG,156.4,T,156.4,M,1.1,N,2.0,K,A*21
$GPRMC,142354.0,A,5139.934205,N,03914.620867,E,1.1,156.4,030316,,,A*6F
$GPGSA,A,2,13,15,18,20,28,30,,,,,,,1.2,0.9,0.8*35
$GNGSA,A,2,13,15,18,20,28,30,,,,,,,1.2,0.9,0.8*2B
$GNGSA,A,2,65,71,72,82,,,,,,,,,1.2,0.9,0.8*25
$GPGSV,4,1,13,01,10,068,21,10,03,345,24,11,16,054,26,13,58,215,17*78
$GPGSV,4,2,13,15,43,285,17,17,45,146,19,18,09,316,26,19,19,172,12*7C
$GPGSV,4,3,13,20,04,258,17,24,16,292,16,28,66,061,15,30,31,108,16*7A
$GPGSV,4,4,13,07,02,111,*4F
$GLGSV,3,1,10,73,71,019,12,82,37,047,21,65,16,338,29,83,37,123,12*6A
$GLGSV,3,2,10,81,04,011,10,71,20,229,13,72,35,286,18,74,35,291,*6F
$GLGSV,3,3,10,80,29,082,,84,02,164,*60
$GPGGA,142355.0,5139.934422,N,03914.621106,E,1,06,0.9,96.0,M,13.0,M,,*63
$GPVTG,156.4,T,156.4,M,1.1,N,2.1,K,A*20
$GPRMC,142355.0,A,5139.934422,N,03914.621106,E,1.1,156.4,030316,,,A*62
$GPGSA,A,2,13,15,18,20,28,30,,,,,,,1.2,0.9,0.8*35
$GNGSA,A,2,13,15,18,20,28,30,,,,,,,1.2,0.9,0.8*2B
$GNGSA,A,2,65,71,72,82,,,,,,,,,1.2,0.9,0.8*25
$GPGSV,4,1,13,01,10,068,23,10,03,345,24,11,16,054,28,13,58,215,17*74
$GPGSV,4,2,13,15,43,285,17,17,45,146,19,18,09,316,24,19,19,172,12*7E
$GPGSV,4,3,13,20,04,258,17,24,16,292,16,28,66,061,15,30,31,108,16*7A
$GPGSV,4,4,13,07,02,111,*4F
$GLGSV,3,1,10,73,71,019,12,82,37,047,21,65,16,338,27,83,37,123,12*64
$GLGSV,3,2,10,81,04,011,10,71,20,229,13,72,35,286,18,74,35,291,*6F
$GLGSV,3,3,10,80,29,082,,84,02,164,*60
$GPGGA,142356.0,5139.934705,N,03914.621300,E,1,06,0.9,96.2,M,13.0,M,,*60
$GPVTG,156.4,T,156.4,M,1.0,N,1.8,K,A*2B
$GPRMC,142356.0,A,5139.934705,N,03914.621300,E,1.0,156.4,030316,,,A*62
$GPGSA,A,2,13,15,18,20,28,30,,,,,,,1.2,0.9,0.8*35
$GNGSA,A,2,13,15,18,20,28,30,,,,,,,1.2,0.9,0.8*2B
$GNGSA,A,2,65,71,72,82,,,,,,,,,1.2,0.9,0.8*25
$GPGSV,4,1,13,01,10,068,23,10,03,345,24,11,16,054,29,13,58,215,17*75
$GPGSV,4,2,13,15,43,285,17,17,45,146,17,18,09,316,26,19,19,172,12*72
$GPGSV,4,3,13,20,04,258,17,24,16,292,16,28,66,061,15,30,31,108,16*7A
$GPGSV,4,4,13,07,02,111,*4F
$GLGSV,3,1,10,73,71,019,16,82,37,047,18,65,16,338,29,83,37,123,12*64
$GLGSV,3,2,10,81,04,011,10,71,20,229,13,72,35,286,18,74,35,291,*6F
$GLGSV,3,3,10,80,29,082,,84,02,164,*60
$GPGGA,142357.0,5139.935104,N,03914.621471,E,1,06,0.9,95.7,M,13.0,M,,*60
$GPVTG,156.4,T,156.4,M,0.7,N,1.3,K,A*26
$GPRMC,142357.0,A,5139.935104,N,03914.621471,E,0.7,156.4,030316,,,A*62
$GPGSA,A,2,13,15,18,20,28,30,,,,,,,1.2,0.9,0.8*35
$GNGSA,A,2,13,15,18,20,28,30,,,,,,,1.2,0.9,0.8*2B
$GNGSA,A,2,65,71,72,82,,,,,,,,,1.2,0.9,0.8*25
$GPGSV,4,1,13,01,10,068,17,10,03,345,19,11,16,054,29,13,58,215,16*7D
$GPGSV,4,2,13,15,43,285,19,17,45,146,20,18,09,316,28,19,19,172,12*76
$GPGSV,4,3,13,20,04,258,17,24,16,292,16,28,66,061,15,30,31,108,16*7A
$GPGSV,4,4,13,07,02,111,*4F
$GLGSV,3,1,10,73,71,019,16,82,37,047,23,65,16,338,28,83,37,123,12*6D
$GLGSV,3,2,10,81,04,011,19,71,20,229,13,72,35,286,18,74,35,291,*66
$GLGSV,3,3,10,80,29,082,,84,02,164,*60
$GPGGA,142358.0,5139.935489,N,03914.621582,E,1,06,0.9,97.8,M,13.0,M,,*6F
$GPVTG,156.4,T,156.4,M,0.0,N,0.0,K,A*23
$GPRMC,142358.0,A,5139.935489,N,03914.621582,E,0.0,156.4,030316,,,A*67
$GPGSA,A,2,13,15,18,20,28,30,,,,,,,1.2,0.9,0.8*35
$GNGSA,A,2,13,15,18,20,28,30,,,,,,,1.2,0.9,0.8*2B
$GNGSA,A,2,65,71,72,82,,,,,,,,,1.2,0.9,0.8*25
$GPGSV,4,1,13,01,10,068,17,10,03,345,19,11,16,054,31,13,58,215,18*7A
$GPGSV,4,2,13,15,43,285,22,17,45,146,20,18,09,316,26,19,19,172,15*77
$GPGSV,4,3,13,20,04,258,17,24,16,292,16,28,66,061,15,30,31,108,16*7A
$GPGSV,4,4,13,07,02,111,*4F
$GLGSV,3,1,09,73,71,019,16,82,37,047,25,65,16,338,27,81,04,011,19*65
$GLGSV,3,2,09,71,20,229,13,72,35,286,18,74,35,291,,80,29,082,*62
$GLGSV,3,3,09,84,02,164,*51
$GPGGA,142359.0,5139.935691,N,03914.621629,E,1,05,0.9,97.4,M,13.0,M,,*68
$GPVTG,156.4,T,156.4,M,0.0,N,0.0,K,A*23
$GPRMC,142359.0,A,5139.935691,N,03914.621629,E,0.0,156.4,030316,,,A*6F
$GPGSA,A,2,13,15,18,28,30,,,,,,,,1.3,0.9,0.9*37
$GNGSA,A,2,13,15,18,28,30,,,,,,,,1.3,0.9,0.9*29
$GNGSA,A,2,65,71,72,82,,,,,,,,,1.3,0.9,0.9*25
$GPGSV,4,1,13,01,10,068,15,10,03,345,19,11,16,054,30,13,58,215,18*79
$GPGSV,4,2,13,15,43,285,22,17,45,146,20,18,09,316,25,19,19,172,15*74
$GPGSV,4,3,13,20,04,258,17,24,16,292,15,28,66,061,18,30,31,108,14*76
$GPGSV,4,4,13,07,02,111,*4F
$GLGSV,3,1,10,73,71,019,16,82,37,047,24,65,16,338,25,81,04,011,19*6E
$GLGSV,3,2,10,71,20,229,13,72,35,286,16,74,35,291,,80,29,082,*64
$GLGSV,3,3,10,84,02,164,,83,37,123,*66
$GPGGA,142400.0,5139.935771,N,03914.621520,E,1,05,1.2,97.1,M,13.0,M,,*69
$GPVTG,156.4,T,156.4,M,0.0,N,0.0,K,A*23
$GPRMC,142400.0,A,5139.935771,N,03914.621520,E,0.0,156.4,030316,,,A*61
$GPGSA,A,2,13,15,18,28,30,,,,,,,,1.5,1.2,0.9*3B
$GNGSA,A,2,13,15,18,28,30,,,,,,,,1.5,1.2,0.9*25
$GNGSA,A,2,65,72,82,,,,,,,,,,1.5,1.2,0.9*2F
$GPGSV,4,1,13,01,10,068,18,10,03,345,15,11,16,054,29,13,58,215,17*7F
$GPGSV,4,2,13,15,43,285,19,17,45,146,19,18,09,316,26,19,19,172,16*76
$GPGSV,4,3,13,20,04,258,15,24,16,292,15,28,66,061,20,30,31,108,14*7F
$GPGSV,4,4,13,07,02,111,*4F
$GLGSV,3,1,10,73,71,019,16,82,37,047,25,65,16,338,25,81,04,011,19*6F
$GLGSV,3,2,10,71,20,229,13,72,35,286,21,74,35,291,,80,29,082,*60
$GLGSV,3,3,10,84,02,164,,83,37,123,*66
$GPGGA,142401.0,5139.935638,N,03914.621556,E,1,06,1.1,96.6,M,13.0,M,,*63
$GPVTG,156.4,T,156.4,M,0.0,N,0.0,K,A*23
$GPRMC,142401.0,A,5139.935638,N,03914.621556,E,0.0,156.4,030316,,,A*6D
$GPGSA,A,2,13,15,18,20,28,30,,,,,,,1.4,1.1,0.8*3A
$GNGSA,A,2,13,15,18,20,28,30,,,,,,,1.4,1.1,0.8*24
$GNGSA,A,2,65,72,82,,,,,,,,,,1.4,1.1,0.8*2C
$GPGSV,4,1,13,01,10,068,18,10,03,345,15,11,16,054,31,13,58,215,18*79
$GPGSV,4,2,13,15,43,285,19,17,45,146,19,18,09,316,26,19,19,172,16*76
$GPGSV,4,3,13,20,04,258,15,24,16,292,15,28,66,061,22,30,31,108,14*7D
$GPGSV,4,4,13,07,02,111,*4F
$GLGSV,3,1,10,74,35,291,10,73,71,019,16,82,37,047,26,65,16,338,24*66
$GLGSV,3,2,10,81,04,011,19,71,20,229,13,72,35,286,21,80,29,082,*6A
$GLGSV,3,3,10,84,02,164,,83,37,123,*66
$GPGGA,142402.0,5139.935409,N,03914.621564,E,1,06,1.1,94.5,M,13.0,M,,*60
$GPVTG,156.4,T,156.4,M,0.0,N,0.0,K,A*23
$GPRMC,142402.0,A,5139.935409,N,03914.621564,E,0.0,156.4,030316,,,A*6F
$GPGSA,A,2,13,15,18,20,28,30,,,,,,,1.3,1.1,0.8*3D
$GNGSA,A,2,13,15,18,20,28,30,,,,,,,1.3,1.1,0.8*23
$GNGSA,A,2,65,72,74,82,,,,,,,,,1.3,1.1,0.8*28
$GPGSV,4,1,13,01,10,068,20,10,03,345,15,11,16,054,30,13,58,215,18*73
$GPGSV,4,2,13,15,43,285,19,17,45,146,18,18,09,316,26,19,19,172,17*76
$GPGSV,4,3,13,20,04,258,15,24,16,292,16,28,66,061,20,30,31,108,14*7C
$GPGSV,4,4,13,07,02,111,*4F
$GLGSV,3,1,10,74,35,291,10,73,71,019,16,82,37,047,25,65,16,338,25*64
$GLGSV,3,2,10,81,04,011,19,71,20,229,13,72,35,286,20,80,29,082,*6B
$GLGSV,3,3,10,84,02,164,,83,37,123,*66
$GPGGA,142403.0,5139.935236,N,03914.621465,E,1,06,1.1,94.6,M,13.0,M,,*68
$GPVTG,156.4,T,156.4,M,0.0,N,0.0,K,A*23
$GPRMC,142403.0,A,5139.935236,N,03914.621465,E,0.0,156.4,030316,,,A*64
$GPGSA,A,2,13,15,18,20,28,30,,,,,,,1.3,1.1,0.8*3D
$GNGSA,A,2,13,15,18,20,28,30,,,,,,,1.3,1.1,0.8*23
$GNGSA,A,2,65,72,74,82,,,,,,,,,1.3,1.1,0.8*28
$GPGSV,4,1,13,01,10,068,21,10,03,345,15,11,16,054,31,13,58,215,20*78
$GPGSV,4,2,13,15,43,285,19,17,45,146,19,18,09,316,26,19,19,172,17*77
$GPGSV,4,3,13,20,04,258,15,24,16,292,18,28,66,061,20,30,31,108,14*72
$GPGSV,4,4,13,07,02,111,*4F
$GLGSV,3,1,10,74,35,291,10,73,71,019,16,82,37,047,28,65,16,338,25*69
$GLGSV,3,2,10,81,04,011,19,71,20,229,13,72,35,286,23,80,29,082,*68
$GLGSV,3,3,10,84,02,164,,83,37,123,*66
$GPGGA,142404.0,5139.935158,N,03914.621181,E,1,06,1.1,95.8,M,13.0,M,,*64
$GPVTG,156.4,T,156.4,M,0.0,N,0.0,K,A*23
$GPRMC,142404.0,A,5139.935158,N,03914.621181,E,0.0,156.4,030316,,,A*67
$GPGSA,A,2,13,15,18,20,28,30,,,,,,,1.3,1.1,0.8*3D
$GNGSA,A,2,13,15,18,20,28,30,,,,,,,1.3,1.1,0.8*23
$GNGSA,A,2,65,72,74,82,,,,,,,,,1.3,1.1,0.8*28
$GPGSV,3,1,12,01,10,068,20,10,03,345,15,11,16,054,31,13,58,215,20*7F
$GPGSV,3,2,12,17,45,146,21,18,09,316,26,19,19,172,16,20,04,258,15*72
$GPGSV,3,3,12,24,16,292,19,28,66,061,19,30,31,108,14,07,02,111,*76
$GLGSV,3,1,10,74,35,291,10,73,71,019,16,82,37,047,22,65,16,338,26*60
$GLGSV,3,2,10,81,04,011,19,71,20,229,13,72,35,286,21,80,29,082,*6A
$GLGSV,3,3,10,84,02,164,,83,37,123,*66
$GPGGA,142405.0,5139.934931,N,03914.620854,E,1,06,0.9,95.2,M,13.0,M,,*60
$GPVTG,156.4,T,156.4,M,0.0,N,0.0,K,A*23
$GPRMC,142405.0,A,5139.934931,N,03914.620854,E,0.0,156.4,030316,,,A*60
$GPGSA,A,2,13,15,18,20,28,30,,,,,,,1.2,0.9,0.8*35
$GNGSA,A,2,13,15,18,20,28,30,,,,,,,1.2,0.9,0.8*2B
$GNGSA,A,2,65,71,72,74,82,,,,,,,,1.2,0.9,0.8*26
$GPGSV,3,1,12,01,10,068,20,10,03,345,15,11,16,054,32,13,58,215,23*7F
$GPGSV,3,2,12,17,45,146,20,18,09,316,24,19,19,172,21,20,04,258,17*77
$GPGSV,3,3,12,24,16,292,19,28,66,061,23,30,31,108,14,07,02,111,*7F
$GLGSV,3,1,10,74,35,291,10,73,71,019,15,82,37,047,23,65,16,338,29*6D
$GLGSV,3,2,10,83,37,123,14,81,04,011,19,71,20,229,13,72,35,286,21*69
$GLGSV,3,3,10,80,29,082,,84,02,164,*60
$GPGGA,142406.0,5139.934546,N,03914.620218,E,1,06,0.8,94.6,M,13.0,M,,*69
$GPVTG,156.4,T,156.4,M,0.0,N,0.0,K,A*23
$GPRMC,142406.0,A,5139.934546,N,03914.620218,E,0.0,156.4,030316,,,A*6D
$GPGSA,A,2,13,15,18,20,28,30,,,,,,,1.1,0.8,0.8*37
$GNGSA,A,2,13,15,18,20,28,30,,,,,,,1.1,0.8,0.8*29
$GNGSA,A,2,65,71,72,74,82,83,,,,,,,1.1,0.8,0.8*2F
$GPGSV,4,1,13,01,10,068,18,10,03,345,22,11,16,054,29,13,58,215,21*7E
$GPGSV,4,2,13,15,43,285,16,17,45,146,20,18,09,316,18,19,19,172,20*7B
$GPGSV,4,3,13,20,04,258,19,24,16,292,19,28,66,061,22,30,31,108,14*7D
$GPGSV,4,4,13,07,02,111,*4F
$GLGSV,3,1,10,74,35,291,10,73,71,019,15,82,37,047,26,65,16,338,25*64
$GLGSV,3,2,10,83,37,123,14,81,04,011,19,71,20,229,13,72,35,286,21*69
$GLGSV,3,3,10,80,29,082,,84,02,164,*60
$GPGGA,142407.0,5139.934437,N,03914.619421,E,1,06,0.8,96.2,M,13.0,M,,*6F
$GPVTG,156.4,T,156.4,M,0.3,N,0.6,K,A*26
$GPRMC,142407.0,A,5139.934437,N,03914.619421,E,0.3,156.4,030316,,,A*6E
$GPGSA,A,2,13,15,18,20,28,30,,,,,,,1.1,0.8,0.8*37
$GNGSA,A,2,13,15,18,20,28,30,,,,,,,1.1,0.8,0.8*29
$GNGSA,A,2,65,71,72,74,82,83,,,,,,,1.1,0.8,0.8*2F
$GPGSV,4,1,13,01,10,068,18,10,03,345,20,11,16,054,29,13,58,215,20*7D
$GPGSV,4,2,13,15,43,285,16,17,45,146,19,18,09,316,18,19,19,172,21*70
$GPGSV,4,3,13,20,04,258,19,24,16,292,19,28,66,061,22,30,31,108,14*7D
$GPGSV,4,4,13,07,02,111,*4F
$GLGSV,3,1,10,74,35,291,10,73,71,019,15,82,37,047,25,65,16,338,24*66
$GLGSV,3,2,10,83,37,123,14,81,04,011,19,71,20,229,13,72,35,286,21*69
$GLGSV,3,3,10,80,29,082,,84,02,164,*60
$GPGGA,142408.0,5139.934285,N,03914.618725,E,1,06,0.8,96.9,M,13.0,M,,*62
$GPVTG,156.4,T,156.4,M,0.4,N,0.7,K,A*20
$GPRMC,142408.0,A,5139.934285,N,03914.618725,E,0.4,156.4,030316,,,A*6F
$GPGSA,A,2,13,15,18,20,28,30,,,,,,,1.1,0.8,0.8*37
$GNGSA,A,2,13,15,18,20,28,30,,,,,,,1.1,0.8,0.8*29
$GNGSA,A,2,65,71,72,74,82,83,,,,,,,1.1,0.8,0.8*2F
$GPGSV,4,1,13,01,10,068,17,10,03,345,20,11,16,054,29,13,58,215,21*73
$GPGSV,4,2,13,15,43,285,16,17,45,146,19,18,09,316,21,19,19,172,21*7A
$GPGSV,4,3,13,20,04,258,17,24,16,292,19,28,66,061,20,30,31,108,14*71
$GPGSV,4,4,13,07,02,111,*4F
$GLGSV,3,1,10,74,35,291,10,73,71,019,15,82,37,047,23,65,16,338,26*62
$GLGSV,3,2,10,83,37,123,14,81,04,011,19,71,20,229,13,72,35,286,16*6D
$GLGSV,3,3,10,80,29,082,,84,02,164,*60
$GPGGA,142409.0,5139.933974,N,03914.618124,E,1,06,0.8,96.1,M,13.0,M,,*6E
$GPVTG,156.4,T,156.4,M,0.4,N,0.8,K,A*2F
$GPRMC,142409.0,A,5139.933974,N,03914.618124,E,0.4,156.4,030316,,,A*6B
$GPGSA,A,2,13,15,18,20,28,30,,,,,,,1.2,0.8,0.8*34
$GNGSA,A,2,13,15,18,20,28,30,,,,,,,1.2,0.8,0.8*2A
$GNGSA,A,2,65,71,72,82,83,,,,,,,,1.2,0.8,0.8*2F
$GPGSV,4,1,13,01,10,068,17,10,03,345,20,11,16,054,29,13,58,215,19*78
$GPGSV,4,2,13,15,43,285,17,17,45,146,16,18,09,316,25,19,19,172,18*7A
$GPGSV,4,3,13,20,04,258,17,24,16,292,19,28,66,061,20,30,31,108,14*71
$GPGSV,4,4,13,07,02,111,*4F
$GLGSV,3,1,10,74,35,291,10,73,71,019,15,82,37,047,23,65,16,338,28*6C
$GLGSV,3,2,10,83,37,123,14,81,04,011,12,71,20,229,13,72,35,286,16*66
$GLGSV,3,3,10,80,29,082,,84,02,164,*60
$GPGGA,142410.0,5139.933689,N,03914.617647,E,1,06,0.8,95.5,M,13.0,M,,*61
$GPVTG,156.4,T,156.4,M,0.4,N,0.8,K,A*2F
$GPRMC,142410.0,A,5139.933689,N,03914.617647,E,0.4,156.4,030316,,,A*63
$GPGSA,A,2,13,15,18,20,28,30,,,,,,,1.2,0.8,0.8*34
$GNGSA,A,2,13,15,18,20,28,30,,,,,,,1.2,0.8,0.8*2A
$GNGSA,A,2,65,71,72,82,83,,,,,,,,1.2,0.8,0.8*2F
$GPGSV,4,1,13,01,10,068,17,10,03,345,20,11,16,054,29,13,58,215,21*73
$GPGSV,4,2,13,15,43,285,18,17,45,146,16,18,09,316,25,19,19,172,19*74
$GPGSV,4,3,13,20,04,258,17,24,16,292,19,28,66,061,20,30,31,108,14*71
$GPGSV,4,4,13,07,02,111,*4F
$GLGSV,3,1,10,74,35,291,16,73,71,019,15,82,37,047,19,65,16,338,28*63
$GLGSV,3,2,10,83,37,123,14,81,04,011,12,71,20,229,13,72,35,286,16*66
$GLGSV,3,3,10,80,29,082,,84,02,164,*60
$GPGGA,142411.0,5139.933331,N,03914.617438,E,1,05,0.9,96.8,M,13.0,M,,*60
$GPVTG,156.4,T,156.4,M,0.4,N,0.8,K,A*2F
$GPRMC,142411.0,A,5139.933331,N,03914.617438,E,0.4,156.4,030316,,,A*6E
$GPGSA,A,2,13,15,18,20,28,,,,,,,,1.2,0.9,0.8*36
$GNGSA,A,2,13,15,18,20,28,,,,,,,,1.2,0.9,0.8*28
$GNGSA,A,2,65,71,72,74,82,83,,,,,,,1.2,0.9,0.8*2D
$GPGSV,4,1,13,01,10,068,17,10,03,345,15,11,16,054,29,13,58,215,19*7E
$GPGSV,4,2,13,15,43,285,20,17,45,146,16,18,09,316,25,19,19,172,22*77
$GPGSV,4,3,13,20,04,258,17,24,16,292,19,28,66,061,14,30,31,108,14*76
$GPGSV,4,4,13,07,02,111,*4F
$GLGSV,3,1,10,74,35,291,16,73,71,019,15,82,37,047,24,65,16,338,27*62
$GLGSV,3,2,10,83,37,123,14,81,04,011,12,71,20,229,13,72,35,286,17*67
$GLGSV,3,3,10,80,29,082,,84,02,164,*60
$GPGGA,142412.0,5139.932962,N,03914.617405,E,1,05,1.0,96.9,M,13.0,M,,*69
$GPVTG,156.4,T,156.4,M,0.4,N,0.7,K,A*20
$GPRMC,142412.0,A,5139.932962,N,03914.617405,E,0.4,156.4,030316,,,A*6E
$GPGSA,A,2,13,15,18,20,28,,,,,,,,1.3,1.0,0.8*3F
$GNGSA,A,2,13,15,18,20,28,,,,,,,,1.3,1.0,0.8*21
$GNGSA,A,2,65,72,74,82,83,,,,,,,,1.3,1.0,0.8*22
$GPGSV,4,1,13,01,10,068,17,10,03,345,15,11,16,054,26,13,58,215,19*71
$GPGSV,4,2,13,15,43,285,19,17,45,146,16,18,09,316,25,19,19,172,22*7D
$GPGSV,4,3,13,20,04,258,17,24,16,292,12,28,66,061,18,30,31,108,14*71
$GPGSV,4,4,13,07,02,111,*4F
$GLGSV,3,1,10,74,35,291,16,73,71,019,15,82,37,047,24,65,16,338,27*62
$GLGSV,3,2,10,83,37,123,14,81,04,011,12,71,20,229,15,72,35,286,22*67
$GLGSV,3,3,10,80,29,082,,84,02,164,*60
$GPGGA,142413.0,5139.932787,N,03914.617432,E,1,05,1.0,97.8,M,13.0,M,,*69
$GPVTG,156.4,T,156.4,M,0.3,N,0.6,K,A*26
$GPRMC,142413.0,A,5139.932787,N,03914.617432,E,0.3,156.4,030316,,,A*69
$GPGSA,A,2,13,15,18,20,28,,,,,,,,1.3,1.0,0.8*3F
$GNGSA,A,2,13,15,18,20,28,,,,,,,,1.3,1.0,0.8*21
$GNGSA,A,2,65,71,72,74,82,,,,,,,,1.3,1.0,0.8*2F
$GPGSV,4,1,13,01,10,068,17,10,03,345,15,11,16,054,24,13,58,215,19*73
$GPGSV,4,2,13,15,43,285,19,17,45,146,16,18,09,316,24,19,19,172,22*7C
$GPGSV,4,3,13,20,04,258,17,24,16,292,12,28,66,061,18,30,31,108,14*71
$GPGSV,4,4,13,07,02,111,*4F
$GLGSV,3,1,10,74,35,291,18,73,71,019,15,82,37,047,23,65,16,338,28*64
$GLGSV,3,2,10,83,37,123,14,81,04,011,17,71,20,229,15,72,35,286,23*63
$GLGSV,3,3,10,80,29,082,,84,02,164,*60
$GPGGA,142414.0,5139.932739,N,03914.617456,E,1,05,1.0,98.2,M,13.0,M,,*6C
$GPVTG,156.4,T,156.4,M,0.0,N,0.0,K,A*23
$GPRMC,142414.0,A,5139.932739,N,03914.617456,E,0.0,156.4,030316,,,A*6A
$GPGSA,A,2,13,15,18,20,28,,,,,,,,1.3,1.0,0.8*3F
$GNGSA,A,2,13,15,18,20,28,,,,,,,,1.3,1.0,0.8*21
$GNGSA,A,2,65,71,72,74,82,,,,,,,,1.3,1.0,0.8*2F
$GPGSV,4,1,13,01,10,068,17,10,03,345,15,11,16,054,24,13,58,215,19*73
$GPGSV,4,2,13,15,43,285,21,17,45,146,13,18,09,316,22,19,19,172,22*74
$GPGSV,4,3,13,20,04,258,17,24,16,292,16,28,66,061,16,30,31,108,14*7B
$GPGSV,4,4,13,07,02,111,*4F
$GLGSV,3,1,09,74,35,291,18,73,71,019,15,82,37,047,23,65,16,338,29*6D
$GLGSV,3,2,09,83,37,123,14,81,04,011,17,71,20,229,15,72,35,286,22*6A
$GLGSV,3,3,09,84,02,164,*51
$GPGGA,142415.0,5139.932835,N,03914.617578,E,1,05,1.0,98.0,M,13.0,M,,*61
$GPVTG,156.4,T,156.4,M,0.0,N,0.0,K,A*23
$GPRMC,142415.0,A,5139.932835,N,03914.617578,E,0.0,156.4,030316,,,A*65
$GPGSA,A,2,13,15,18,20,28,,,,,,,,1.3,1.0,0.8*3F
$GNGSA,A,2,13,15,18,20,28,,,,,,,,1.3,1.0,0.8*21
$GNGSA,A,2,65,71,72,74,82,,,,,,,,1.3,1.0,0.8*2F
$GPGSV,4,1,13,01,10,068,17,10,03,345,20,11,16,054,27,13,58,215,16*79
$GPGSV,4,2,13,15,43,285,20,17,45,146,13,18,09,316,23,19,19,172,22*74
$GPGSV,4,3,13,20,04,258,17,24,16,292,16,28,66,061,18,30,31,108,12*73
$GPGSV,4,4,13,07,02,111,*4F
$GLGSV,3,1,09,74,35,291,18,73,71,019,15,82,37,047,21,65,16,338,28*6E
$GLGSV,3,2,09,83,37,123,14,81,04,011,17,71,20,229,15,72,35,286,21*69
$GLGSV,3,3,09,84,02,164,*51
$GPGGA,142416.0,5139.932998,N,03914.617649,E,1,05,0.9,97.7,M,13.0,M,,*65
$GPVTG,156.4,T,156.4,M,0.0,N,0.0,K,A*23
$GPRMC,142416.0,A,5139.932998,N,03914.617649,E,0.0,156.4,030316,,,A*61
$GPGSA,A,2,13,15,18,28,30,,,,,,,,1.2,0.9,0.9*36
$GNGSA,A,2,13,15,18,28,30,,,,,,,,1.2,0.9,0.9*28
$GNGSA,A,2,65,71,72,74,82,,,,,,,,1.2,0.9,0.9*27
$GPGSV,4,1,13,01,10,068,17,10,03,345,18,11,16,054,28,13,58,215,16*7D
$GPGSV,4,2,13,15,43,285,22,17,45,146,16,18,09,316,24,19,19,172,22*74
$GPGSV,4,3,13,20,04,258,17,24,16,292,16,28,66,061,18,30,31,108,12*73
$GPGSV,4,4,13,07,02,111,*4F
$GLGSV,3,1,09,74,35,291,18,73,71,019,15,82,37,047,26,65,16,338,30*60
$GLGSV,3,2,09,83,37,123,14,81,04,011,17,71,20,229,15,72,35,286,20*68
$GLGSV,3,3,09,84,02,164,*51
$GPGGA,142417.0,5139.933141,N,03914.617462,E,1,05,0.8,98.3,M,13.0,M,,*68
$GPVTG,156.4,T,156.4,M,0.0,N,0.0,K,A*23
$GPRMC,142417.0,A,5139.933141,N,03914.617462,E,0.0,156.4,030316,,,A*66
$GPGSA,A,2,13,15,18,28,30,,,,,,,,1.2,0.8,0.8*36
$GNGSA,A,2,13,15,18,28,30,,,,,,,,1.2,0.8,0.8*28
$GNGSA,A,2,65,71,72,74,82,83,,,,,,,1.2,0.8,0.8*2C
$GPGSV,4,1,13,01,10,068,12,10,03,345,19,11,16,054,26,13,58,215,16*77
$GPGSV,4,2,13,15,43,285,22,17,45,146,16,18,09,316,24,19,19,172,15*70
$GPGSV,4,3,13,20,04,258,17,24,16,292,14,28,66,061,21,30,31,108,12*7B
$GPGSV,4,4,13,07,02,111,*4F
$GLGSV,3,1,09,74,35,291,18,73,71,019,10,82,37,047,28,65,16,338,25*6F
$GLGSV,3,2,09,83,37,123,14,81,04,011,17,71,20,229,15,72,35,286,20*68
$GLGSV,3,3,09,84,02,164,*51
$GPGGA,142418.0,5139.933044,N,03914.617490,E,1,05,0.8,98.7,M,13.0,M,,*6A
$GPVTG,156.4,T,156.4,M,0.3,N,0.6,K,A*26
$GPRMC,142418.0,A,5139.933044,N,03914.617490,E,0.3,156.4,030316,,,A*63
$GPGSA,A,2,13,15,18,28,30,,,,,,,,1.2,0.8,0.8*36
$GNGSA,A,2,13,15,18,28,30,,,,,,,,1.2,0.8,0.8*28
$GNGSA,A,2,65,71,72,74,82,83,,,,,,,1.2,0.8,0.8*2C
$GPGSV,4,1,13,01,10,068,22,10,03,345,19,11,16,054,24,13,58,215,16*76
$GPGSV,4,2,13,15,43,285,18,17,45,146,17,18,09,314,24,19,20,172,19*7C
$GPGSV,4,3,13,20,04,257,17,24,16,292,14,28,66,061,19,30,30,108,16*7A
$GPGSV,4,4,13,07,02,111,*4F
$GLGSV,3,1,09,74,35,291,16,73,71,021,10,82,37,047,20,65,16,338,28*6F
$GLGSV,3,2,09,83,37,123,14,81,03,011,17,71,20,229,16,72,35,286,19*66
$GLGSV,3,3,09,84,02,164,*51
$GPGGA,142419.0,5139.932750,N,03914.617809,E,1,05,0.8,97.9,M,13.0,M,,*65
$GPVTG,156.4,T,156.4,M,0.6,N,1.2,K,A*26
$GPRMC,142419.0,A,5139.932750,N,03914.617809,E,0.6,156.4,030316,,,A*68
$GPGSA,A,2,13,15,18,28,30,,,,,,,,1.2,0.8,0.8*36
$GNGSA,A,2,13,15,18,28,30,,,,,,,,1.2,0.8,0.8*28
$GNGSA,A,2,65,71,72,74,82,83,,,,,,,1.2,0.8,0.8*2C
$GPGSV,4,1,13,01,10,068,20,10,03,345,19,11,16,054,25,13,58,215,14*77
$GPGSV,4,2,13,15,43,285,22,17,45,146,18,18,09,314,22,19,20,172,18*7D
$GPGSV,4,3,13,20,04,257,17,24,16,292,14,28,66,061,18,30,30,108,16*7B
$GPGSV,4,4,13,07,02,111,*4F
$GLGSV,3,1,09,74,35,291,16,73,71,021,10,82,37,047,25,65,16,338,27*65
$GLGSV,3,2,09,83,37,123,14,81,03,011,17,71,20,229,16,72,35,286,19*66
$GLGSV,3,3,09,84,02,164,*51
$GPGGA,142420.0,5139.932521,N,03914.618713,E,1,05,0.8,96.2,M,13.0,M,,*6A
$GPVTG,156.4,T,156.4,M,1.1,N,2.0,K,A*21
$GPRMC,142420.0,A,5139.932521,N,03914.618713,E,1.1,156.4,030316,,,A*6B
$GPGSA,A,2,13,15,18,28,30,,,,,,,,1.2,0.8,0.8*36
$GNGSA,A,2,13,15,18,28,30,,,,,,,,1.2,0.8,0.8*28
$GNGSA,A,2,65,71,72,74,82,83,,,,,,,1.2,0.8,0.8*2C
$GPGSV,4,1,13,01,10,068,20,10,03,345,19,11,16,054,22,13,58,215,14*70
$GPGSV,4,2,13,15,43,285,22,17,45,146,18,18,09,314,24,19,20,172,18*7B
$GPGSV,4,3,13,20,04,257,11,24,16,292,14,28,66,061,21,30,30,108,16*77
$GPGSV,4,4,13,07,02,111,*4F
$GLGSV,3,1,09,74,35,291,16,73,71,021,10,82,37,047,22,65,16,338,27*62
$GLGSV,3,2,09,83,37,123,17,81,03,011,17,71,20,229,20,72,35,286,19*60
$GLGSV,3,3,09,84,02,164,*51
$GPGGA,142421.0,5139.932283,N,03914.620073,E,1,06,0.8,96.8,M,13.0,M,,*67
$GPVTG,118.4,T,118.4,M,1.8,N,3.3,K,A*2A
$GPRMC,142421.0,A,5139.932283,N,03914.620073,E,1.8,118.4,030316,,,A*6C
$GPGSA,A,2,13,15,18,20,28,30,,,,,,,1.1,0.8,0.8*37
$GNGSA,A,2,13,15,18,20,28,30,,,,,,,1.1,0.8,0.8*29
$GNGSA,A,2,65,71,72,74,82,83,,,,,,,1.1,0.8,0.8*2F
$GPGSV,4,1,13,01,10,068,15,10,03,345,15,11,16,054,23,13,58,215,14*7B
$GPGSV,4,2,13,15,43,285,16,17,45,146,16,18,09,314,24,19,20,172,18*72
$GPGSV,4,3,13,20,04,257,11,24,16,292,14,28,66,061,20,30,30,108,16*76
$GPGSV,4,4,13,07,02,111,*4F
$GLGSV,3,1,09,74,35,291,18,73,71,021,10,82,37,047,23,65,16,338,26*6C
$GLGSV,3,2,09,83,37,123,17,81,03,011,17,71,20,229,20,72,35,286,19*60
$GLGSV,3,3,09,84,02,164,*51
$GPGGA,142422.0,5139.931919,N,03914.621933,E,1,06,0.8,96.7,M,13.0,M,,*6C
$GPVTG,112.8,T,112.8,M,2.6,N,4.9,K,A*2A
$GPRMC,142422.0,A,5139.931919,N,03914.621933,E,2.6,112.8,030316,,,A*63
$GPGSA,A,2,13,15,18,20,28,30,,,,,,,1.1,0.8,0.8*37
$GNGSA,A,2,13,15,18,20,28,30,,,,,,,1.1,0.8,0.8*29
$GNGSA,A,2,65,71,72,74,82,83,,,,,,,1.1,0.8,0.8*2F
$GPGSV,4,1,13,01,10,068,15,10,03,345,15,11,16,054,24,13,58,215,14*7C
$GPGSV,4,2,13,15,43,285,16,17,45,146,16,18,09,314,23,19,20,172,16*7B
$GPGSV,4,3,13,20,04,257,11,24,16,292,14,28,66,061,20,30,30,108,16*76
$GPGSV,4,4,13,07,02,111,*4F
$GLGSV,3,1,09,74,35,291,18,73,71,021,16,82,37,047,21,65,16,338,25*6B
$GLGSV,3,2,09,83,37,123,17,81,03,011,17,71,20,229,20,72,35,286,17*6E
$GLGSV,3,3,09,84,02,164,*51
$GPGGA,142423.0,5139.931525,N,03914.624269,E,1,06,0.8,96.7,M,13.0,M,,*6F
$GPVTG,108.5,T,108.5,M,3.5,N,6.5,K,A*26
$GPRMC,142423.0,A,5139.931525,N,03914.624269,E,3.5,108.5,030316,,,A*64
$GPGSA,A,2,13,15,18,20,28,30,,,,,,,1.1,0.8,0.8*37
$GNGSA,A,2,13,15,18,20,28,30,,,,,,,1.1,0.8,0.8*29
$GNGSA,A,2,65,71,72,74,82,83,,,,,,,1.1,0.8,0.8*2F
$GPGSV,4,1,13,01,10,068,15,10,03,345,15,11,16,054,26,13,58,215,15*7F
$GPGSV,4,2,13,15,43,285,19,17,45,146,16,18,09,314,24,19,20,172,16*73
$GPGSV,4,3,13,20,04,257,11,24,16,292,13,28,66,061,20,30,30,108,16*71
$GPGSV,4,4,13,07,02,111,*4F
$GLGSV,3,1,09,74,35,291,18,73,71,021,16,82,37,047,27,65,16,338,27*6F
$GLGSV,3,2,09,83,37,123,17,81,03,011,17,71,20,229,20,72,35,286,17*6E
$GLGSV,3,3,09,84,02,164,*51
$GPGGA,142424.0,5139.931212,N,03914.627053,E,1,06,0.8,96.0,M,13.0,M,,*64
$GPVTG,106.3,T,106.3,M,4.3,N,8.0,K,A*2C
$GPRMC,142424.0,A,5139.931212,N,03914.627053,E,4.3,106.3,030316,,,A*61
$GPGSA,A,2,13,15,18,20,28,30,,,,,,,1.1,0.8,0.8*37
$GNGSA,A,2,13,15,18,20,28,30,,,,,,,1.1,0.8,0.8*29
$GNGSA,A,2,65,71,72,74,82,83,,,,,,,1.1,0.8,0.8*2F
$GPGSV,4,1,13,01,10,068,15,10,03,345,15,11,16,054,23,13,58,215,19*76
$GPGSV,4,2,13,15,43,285,22,17,45,146,19,18,09,314,25,19,20,172,16*75
$GPGSV,4,3,13,20,04,257,11,24,16,292,13,28,66,061,15,30,30,108,16*77
$GPGSV,4,4,13,07,02,111,*4F
$GLGSV,3,1,09,74,35,291,18,73,71,021,16,82,37,047,22,65,16,338,24*69
$GLGSV,3,2,09,83,37,123,17,81,03,011,17,71,20,229,20,72,35,286,17*6E
$GLGSV,3,3,09,84,02,164,*51
$GPGGA,142425.0,5139.930908,N,03914.630580,E,1,06,0.8,94.9,M,13.0,M,,*62
$GPVTG,104.2,T,104.2,M,5.1,N,9.5,K,A*2B
$GPRMC,142425.0,A,5139.930908,N,03914.630580,E,5.1,104.2,030316,,,A*6C
$GPGSA,A,2,13,15,18,20,28,30,,,,,,,1.1,0.8,0.8*37
$GNGSA,A,2,13,15,18,20,28,30,,,,,,,1.1,0.8,0.8*29
$GNGSA,A,2,65,71,72,74,82,83,,,,,,,1.1,0.8,0.8*2F
$GPGSV,4,1,13,01,10,068,15,10,03,345,14,11,16,054,18,13,58,215,18*7E
$GPGSV,4,2,13,15,43,285,19,17,45,146,19,18,09,314,23,19,20,172,15*78
$GPGSV,4,3,13,20,04,257,11,24,16,292,16,28,66,061,15,30,30,108,14*70
$GPGSV,4,4,13,07,02,111,*4F
$GLGSV,3,1,09,74,35,291,17,73,71,021,16,82,37,047,24,65,16,338,26*62
$GLGSV,3,2,09,83,37,123,17,81,03,011,7,71,20,229,20,72,35,286,17*5F
$GLGSV,3,3,09,84,02,164,*51
$GPGGA,142426.0,5139.930791,N,03914.634200,E,1,06,0.8,94.8,M,13.0,M,,*65
$GPVTG,101.3,T,101.3,M,5.7,N,10.5,K,A*15
$GPRMC,142426.0,A,5139.930791,N,03914.634200,E,5.7,101.3,030316,,,A*68
$GPGSA,A,2,13,15,18,20,28,30,,,,,,,1.1,0.8,0.8*37
$GNGSA,A,2,13,15,18,20,28,30,,,,,,,1.1,0.8,0.8*29
$GNGSA,A,2,65,71,72,74,82,83,,,,,,,1.1,0.8,0.8*2F
$GPGSV,4,1,13,01,10,068,15,10,03,345,14,11,16,054,27,13,58,215,19*73
$GPGSV,4,2,13,15,43,285,19,17,45,146,16,18,09,314,23,19,20,172,15*77
$GPGSV,4,3,13,20,04,257,13,24,16,292,16,28,66,061,17,30,30,108,14*70
$GPGSV,4,4,13,07,02,111,*4F
$GLGSV,3,1,09,74,35,291,17,73,71,021,16,82,37,047,22,65,16,338,27*65
$GLGSV,3,2,09,83,37,123,17,81,03,011,7,71,20,229,20,72,35,286,16*5E
$GLGSV,3,3,09,84,02,164,*51
$GPGGA,142427.0,5139.930446,N,03914.637784,E,1,06,0.8,95.0,M,13.0,M,,*6E
$GPVTG,100.3,T,100.3,M,6.0,N,11.2,K,A*17
$GPRMC,142427.0,A,5139.930446,N,03914.637784,E,6.0,100.3,030316,,,A*6F
$GPGSA,A,2,13,15,18,20,28,30,,,,,,,1.1,0.8,0.8*37
$GNGSA,A,2,13,15,18,20,28,30,,,,,,,1.1,0.8,0.8*29
$GNGSA,A,2,65,71,72,74,82,83,,,,,,,1.1,0.8,0.8*2F
$GPGSV,4,1,13,01,10,068,15,10,03,345,17,11,16,054,28,13,58,215,19*7F
$GPGSV,4,2,13,15,43,285,16,17,45,146,16,18,09,314,19,19,20,172,15*71
$GPGSV,4,3,13,20,04,257,13,24,16,292,16,28,66,061,21,30,30,108,14*75
$GPGSV,4,4,13,07,02,111,*4F
$GLGSV,3,1,09,74,35,291,17,73,71,021,16,82,37,047,21,65,16,338,28*69
$GLGSV,3,2,09,83,37,123,17,81,03,011,7,71,20,229,20,72,35,286,16*5E
$GLGSV,3,3,09,84,02,164,*51
$GPGGA,142428.0,5139.930272,N,03914.641059,E,1,06,1.1,94.2,M,13.0,M,,*6D
$GPVTG,99.2,T,99.2,M,6.1,N,11.4,K,A*10
$GPRMC,142428.0,A,5139.930272,N,03914.641059,E,6.1,99.2,030316,,,A*56
$GPGSA,A,2,13,15,18,20,28,30,,,,,,,1.3,1.1,0.8*3D
$GNGSA,A,2,13,15,18,20,28,30,,,,,,,1.3,1.1,0.8*23
$GNGSA,A,2,65,72,74,82,,,,,,,,,1.3,1.1,0.8*28
$GPGSV,4,1,13,01,10,068,15,10,03,345,18,11,16,054,30,13,58,215,18*78
$GPGSV,4,2,13,15,43,285,16,17,45,146,16,18,09,314,21,19,20,172,15*7A
$GPGSV,4,3,13,20,04,257,13,24,16,292,16,28,66,061,21,30,30,108,15*74
$GPGSV,4,4,13,07,02,111,*4F
$GLGSV,3,1,09,74,35,291,17,73,71,021,16,82,37,047,21,65,16,338,26*67
$GLGSV,3,2,09,83,37,123,17,81,03,011,7,71,20,229,20,72,35,286,16*5E
$GLGSV,3,3,09,84,02,164,*51
$GPGGA,142429.0,5139.930109,N,03914.643954,E,1,06,1.1,93.9,M,13.0,M,,*69
$GPVTG,97.7,T,97.7,M,5.9,N,10.9,K,A*17
$GPRMC,142429.0,A,5139.930109,N,03914.643954,E,5.9,97.7,030316,,,A*5E
$GPGSA,A,2,13,15,18,20,28,30,,,,,,,1.3,1.1,0.8*3D
$GNGSA,A,2,13,15,18,20,28,30,,,,,,,1.3,1.1,0.8*23
$GNGSA,A,2,65,72,74,82,,,,,,,,,1.3,1.1,0.8*28
$GPGSV,4,1,13,01,10,068,15,10,03,345,19,11,16,054,28,13,58,215,18*70
$GPGSV,4,2,13,15,43,285,17,17,45,146,19,18,09,314,20,19,20,172,15*75
$GPGSV,4,3,13,20,04,257,13,24,16,292,16,28,66,061,17,30,30,108,15*71
$GPGSV,4,4,13,07,02,111,*4F
$GLGSV,3,1,09,74,35,291,17,73,71,021,16,82,37,047,21,65,16,338,26*67
$GLGSV,3,2,09,83,37,123,17,81,03,011,7,71,20,229,20,72,35,286,16*5E
$GLGSV,3,3,09,84,02,164,*51
$GPGGA,142430.0,5139.930082,N,03914.646103,E,1,06,1.1,94.5,M,13.0,M,,*67
$GPVTG,95.8,T,95.8,M,5.2,N,9.7,K,A*2A
$GPRMC,142430.0,A,5139.930082,N,03914.646103,E,5.2,95.8,030316,,,A*5D
$GPGSA,A,2,13,15,18,20,28,30,,,,,,,1.3,1.1,0.8*3D
$GNGSA,A,2,13,15,18,20,28,30,,,,,,,1.3,1.1,0.8*23
$GNGSA,A,2,65,72,74,82,,,,,,,,,1.3,1.1,0.8*28
$GPGSV,4,1,13,01,10,068,15,10,03,345,19,11,16,054,27,13,58,215,18*7F
$GPGSV,4,2,13,15,43,285,18,17,45,146,19,18,09,314,25,19,20,172,15*7F
$GPGSV,4,3,13,20,04,257,13,24,16,292,14,28,66,061,18,30,30,108,15*7C
$GPGSV,4,4,13,07,02,111,*4F
$GLGSV,3,1,09,74,35,291,17,73,71,021,16,82,37,047,23,65,16,338,26*65
$GLGSV,3,2,09,83,37,123,17,81,03,011,7,71,20,229,20,72,35,286,16*5E
$GLGSV,3,3,09,84,02,164,*51
$GPGGA,142431.0,5139.930188,N,03914.648118,E,1,06,1.1,95.6,M,13.0,M,,*6B
$GPVTG,91.9,T,91.9,M,4.7,N,8.6,K,A*2E
$GPRMC,142431.0,A,5139.930188,N,03914.648118,E,4.7,91.9,030316,,,A*52
$GPGSA,A,2,13,15,18,20,28,30,,,,,,,1.3,1.1,0.8*3D
$GNGSA,A,2,13,15,18,20,28,30,,,,,,,1.3,1.1,0.8*23
$GNGSA,A,2,65,72,74,82,,,,,,,,,1.3,1.1,0.8*28
$GPGSV,4,1,13,01,10,068,15,10,03,345,22,11,16,054,25,13,58,215,18*75
$GPGSV,4,2,13,15,43,285,21,17,45,146,18,18,09,314,21,19,20,172,15*70
$GPGSV,4,3,13,20,04,257,13,24,16,292,14,28,66,061,18,30,30,108,15*7C
$GPGSV,4,4,13,07,02,111,*4F
$GLGSV,3,1,09,74,35,291,17,73,71,021,16,82,37,047,27,65,16,338,29*6E
$GLGSV,3,2,09,83,37,123,17,81,03,011,7,71,20,229,20,72,35,286,16*5E
$GLGSV,3,3,09,84,02,164,*51
$GPGGA,142432.0,5139.930353,N,03914.649874,E,1,06,1.1,94.8,M,13.0,M,,*61
$GPVTG,88.4,T,88.4,M,4.2,N,7.7,K,A*25
$GPRMC,142432.0,A,5139.930353,N,03914.649874,E,4.2,88.4,030316,,,A*57
$GPGSA,A,2,13,15,18,20,28,30,,,,,,,1.3,1.1,0.8*3D
$GNGSA,A,2,13,15,18,20,28,30,,,,,,,1.3,1.1,0.8*23
$GNGSA,A,2,65,72,74,82,,,,,,,,,1.3,1.1,0.8*28
$GPGSV,4,1,13,01,10,068,15,10,03,345,17,11,16,054,27,13,58,215,18*71
$GPGSV,4,2,13,15,43,285,21,17,45,146,21,18,09,314,21,19,20,172,15*7A
$GPGSV,4,3,13,20,04,257,13,24,16,292,14,28,66,061,18,30,30,108,15*7C
$GPGSV,4,4,13,07,02,111,*4F
$GLGSV,3,1,09,74,35,291,17,73,71,021,16,82,37,047,24,65,16,338,28*6C
$GLGSV,3,2,09,83,37,123,14,81,03,011,7,71,20,229,14,72,35,286,16*5A
$GLGSV,3,3,09,84,02,164,*51
$GPGGA,142433.0,5139.930495,N,03914.651569,E,1,06,0.8,94.3,M,13.0,M,,*66
$GPVTG,85.9,T,85.9,M,3.8,N,7.0,K,A*2F
$GPRMC,142433.0,A,5139.930495,N,03914.651569,E,3.8,85.9,030316,,,A*5E
$GPGSA,A,2,13,15,18,20,28,30,,,,,,,1.2,0.8,0.8*34
$GNGSA,A,2,13,15,18,20,28,30,,,,,,,1.2,0.8,0.8*2A
$GNGSA,A,2,65,71,72,82,83,,,,,,,,1.2,0.8,0.8*2F
$GPGSV,3,1,12,10,03,345,22,11,16,054,21,13,58,215,18,15,43,285,21*72
$GPGSV,3,2,12,17,45,146,21,18,09,314,25,19,20,172,15,20,04,257,13*73
$GPGSV,3,3,12,24,16,292,16,28,66,061,18,30,30,108,14,07,02,111,*79
$GLGSV,3,1,09,74,35,291,17,73,71,021,16,82,37,047,23,65,16,338,28*6B
$GLGSV,3,2,09,83,37,123,14,81,03,011,7,71,20,229,14,72,35,286,16*5A
$GLGSV,3,3,09,84,02,164,*51
$GPGGA,142434.0,5139.930502,N,03914.653104,E,1,05,0.9,94.1,M,13.0,M,,*63
$GPVTG,86.8,T,86.8,M,3.5,N,6.6,K,A*25
$GPRMC,142434.0,A,5139.930502,N,03914.653104,E,3.5,86.8,030316,,,A*54
$GPGSA,A,2,13,15,18,28,30,,,,,,,,1.2,0.9,0.9*36
$GNGSA,A,2,13,15,18,28,30,,,,,,,,1.2,0.9,0.9*28
$GNGSA,A,2,65,71,82,83,,,,,,,,,1.2,0.9,0.9*2A
$GPGSV,3,1,12,10,03,345,22,11,16,054,24,13,58,215,15,15,43,285,16*7E
$GPGSV,3,2,12,17,45,146,21,18,09,314,25,19,20,172,16,20,04,257,13*70
$GPGSV,3,3,12,24,16,292,19,28,66,061,18,30,30,108,14,07,02,111,*76
$GLGSV,3,1,09,74,35,291,17,73,71,021,16,82,37,047,24,65,16,338,28*6C
$GLGSV,3,2,09,83,37,123,14,81,03,011,7,71,20,229,14,72,35,286,16*5A
$GLGSV,3,3,09,84,02,164,*51
$GPGGA,142435.0,5139.930254,N,03914.654621,E,1,06,0.8,94.1,M,13.0,M,,*63
$GPVTG,92.1,T,92.1,M,3.3,N,6.1,K,A*24
$GPRMC,142435.0,A,5139.930254,N,03914.654621,E,3.3,92.1,030316,,,A*5C
$GPGSA,A,2,13,15,18,20,28,30,,,,,,,1.2,0.8,0.8*34
$GNGSA,A,2,13,15,18,20,28,30,,,,,,,1.2,0.8,0.8*2A
$GNGSA,A,2,65,71,82,83,,,,,,,,,1.2,0.8,0.8*2A
$GPGSV,3,1,12,10,03,345,21,11,16,054,23,13,58,215,15,15,43,285,19*75
$GPGSV,3,2,12,17,45,146,15,18,09,314,23,19,20,172,16,20,04,257,13*71
$GPGSV,3,3,12,24,16,292,19,28,66,061,15,30,30,108,14,07,02,111,*7B
$GLGSV,3,1,09,74,35,291,17,73,71,021,16,82,37,047,23,65,16,338,26*65
$GLGSV,3,2,09,83,37,123,14,81,03,011,7,71,20,229,14,72,35,286,16*5A
$GLGSV,3,3,09,84,02,164,*51
$GPGGA,142436.0,5139.929676,N,03914.656126,E,1,06,0.8,95.5,M,13.0,M,,*6B
$GPVTG,101.0,T,101.0,M,3.3,N,6.0,K,A*25
$GPRMC,142436.0,A,5139.929676,N,03914.656126,E,3.3,101.0,030316,,,A*6B
$GPGSA,A,2,13,15,18,20,28,30,,,,,,,1.2,0.8,0.8*34
$GNGSA,A,2,13,15,18,20,28,30,,,,,,,1.2,0.8,0.8*2A
$GNGSA,A,2,65,71,82,83,,,,,,,,,1.2,0.8,0.8*2A
$GPGSV,3,1,12,10,03,345,19,11,16,054,27,13,58,215,15,15,43,285,19*7A
$GPGSV,3,2,12,17,45,146,15,18,09,314,23,19,20,172,16,20,04,257,13*71
$GPGSV,3,3,12,24,16,292,18,28,66,061,15,30,30,108,14,07,02,111,*7A
$GLGSV,3,1,09,74,35,291,17,73,71,021,16,82,37,047,22,65,16,338,28*6A
$GLGSV,3,2,09,83,37,123,14,81,03,011,7,71,20,229,14,72,35,286,16*5A
$GLGSV,3,3,09,84,02,164,*51
$GPGGA,142437.0,5139.928910,N,03914.657782,E,1,06,0.8,95.5,M,13.0,M,,*6D
$GPVTG,109.6,T,109.6,M,3.5,N,6.4,K,A*27
$GPRMC,142437.0,A,5139.928910,N,03914.657782,E,3.5,109.6,030316,,,A*65
$GPGSA,A,2,13,15,18,20,28,30,,,,,,,1.2,0.8,0.8*34
$GNGSA,A,2,13,15,18,20,28,30,,,,,,,1.2,0.8,0.8*2A
$GNGSA,A,2,65,71,82,83,,,,,,,,,1.2,0.8,0.8*2A
$GPGSV,3,1,12,10,03,345,23,11,16,054,25,13,58,215,15,15,43,285,19*71
$GPGSV,3,2,12,17,45,146,16,18,09,314,23,19,20,172,16,20,04,257,13*72
$GPGSV,3,3,12,24,16,292,18,28,66,061,15,30,30,108,14,07,02,111,*7A
$GLGSV,3,1,09,74,35,291,14,73,71,021,16,82,37,047,22,65,16,338,29*68
$GLGSV,3,2,09,83,37,123,14,81,03,011,7,71,20,229,14,72,35,286,16*5A
$GLGSV,3,3,09,84,02,164,*51
$GPGGA,142438.0,5139.928320,N,03914.659641,E,1,06,0.8,95.2,M,13.0,M,,*6C
$GPVTG,113.0,T,113.0,M,3.8,N,7.1,K,A*2E
$GPRMC,142438.0,A,5139.928320,N,03914.659641,E,3.8,113.0,030316,,,A*63
$GPGSA,A,2,13,15,18,20,28,30,,,,,,,1.2,0.8,0.8*34
$GNGSA,A,2,13,15,18,20,28,30,,,,,,,1.2,0.8,0.8*2A
$GNGSA,A,2,65,71,74,82,83,,,,,,,,1.2,0.8,0.8*29
$GPGSV,3,1,12,10,03,345,20,11,16,054,24,13,58,215,15,15,43,285,19*73
$GPGSV,3,2,12,17,45,146,16,18,09,314,27,19,20,172,16,20,04,257,13*76
$GPGSV,3,3,12,24,16,292,18,28,66,061,15,30,30,108,14,07,02,111,*7A
$GLGSV,3,1,09,74,35,291,14,73,71,021,14,82,37,047,22,65,16,338,29*6A
$GLGSV,3,2,09,83,37,123,14,81,03,011,7,71,20,229,14,72,35,286,13*5F
$GLGSV,3,3,09,84,02,164,*51
$GPGGA,142439.0,5139.927711,N,03914.662022,E,1,06,0.8,95.1,M,13.0,M,,*6C
$GPVTG,112.0,T,112.0,M,4.3,N,8.0,K,A*2C
$GPRMC,142439.0,A,5139.927711,N,03914.662022,E,4.3,112.0,030316,,,A*6D
$GPGSA,A,2,13,15,18,20,28,30,,,,,,,1.1,0.8,0.8*37
$GNGSA,A,2,13,15,18,20,28,30,,,,,,,1.1,0.8,0.8*29
$GNGSA,A,2,65,71,72,74,82,83,,,,,,,1.1,0.8,0.8*2F
$GPGSV,3,1,12,10,03,345,18,11,16,054,24,13,58,215,15,15,43,285,16*77
$GPGSV,3,2,12,17,45,146,16,18,09,314,25,19,20,172,16,20,04,257,13*74
$GPGSV,3,3,12,24,16,292,16,28,66,061,15,30,30,108,14,07,02,111,*74
$GLGSV,3,1,09,74,35,291,14,73,71,021,14,82,37,047,25,65,16,338,29*6D
$GLGSV,3,2,09,83,37,123,14,81,03,011,7,71,20,229,14,72,35,286,13*5F
$GLGSV,3,3,09,84,02,164,*51
$GPGGA,142440.0,5139.927324,N,03914.664683,E,1,06,1.1,95.0,M,13.0,M,,*62
$GPVTG,108.2,T,108.2,M,4.7,N,8.7,K,A*2F
$GPRMC,142440.0,A,5139.927324,N,03914.664683,E,4.7,108.2,030316,,,A*67
$GPGSA,A,2,13,15,18,20,28,30,,,,,,,1.3,1.1,0.8*3D
$GNGSA,A,2,13,15,18,20,28,30,,,,,,,1.3,1.1,0.8*23
$GNGSA,A,2,65,72,74,82,,,,,,,,,1.3,1.1,0.8*28
$GPGSV,3,1,12,10,03,345,17,11,16,054,24,13,58,215,15,15,43,285,16*78
$GPGSV,3,2,12,17,45,146,16,18,09,314,26,19,20,172,16,20,04,257,13*77
$GPGSV,3,3,12,24,16,292,16,28,66,061,17,30,30,108,14,07,02,111,*76
$GLGSV,3,1,09,74,35,291,14,73,71,021,14,82,37,047,20,65,16,338,28*69
$GLGSV,3,2,09,83,37,123,14,81,03,011,7,71,20,229,14,72,35,286,13*5F
$GLGSV,3,3,09,84,02,164,*51
$GPGGA,142441.0,5139.927038,N,03914.667811,E,1,05,1.2,96.0,M,13.0,M,,*68
$GPVTG,104.3,T,104.3,M,5.1,N,9.5,K,A*2B
$GPRMC,142441.0,A,5139.927038,N,03914.667811,E,5.1,104.3,030316,,,A*64
$GPGSA,A,2,13,15,18,20,28,,,,,,,,1.5,1.2,0.9*3A
$GNGSA,A,2,13,15,18,20,28,,,,,,,,1.5,1.2,0.9*24
$GNGSA,A,2,65,72,74,82,,,,,,,,,1.5,1.2,0.9*2C
$GPGSV,3,1,12,10,03,345,22,11,16,054,16,13,58,215,15,15,43,285,16*7F
$GPGSV,3,2,12,17,45,146,16,18,09,314,26,19,20,172,16,20,04,257,13*77
$GPGSV,3,3,12,24,16,292,16,28,66,061,17,30,30,108,14,07,02,111,*76
$GLGSV,3,1,09,74,35,291,14,73,71,021,14,82,37,047,20,65,16,338,25*64
$GLGSV,3,2,09,83,37,123,14,81,03,011,7,71,20,229,14,72,35,286,13*5F
$GLGSV,3,3,09,84,02,164,*51
$GPGGA,142442.0,5139.926772,N,03914.670706,E,1,04,1.4,95.5,M,13.0,M,,*6D
$GPVTG,102.3,T,102.3,M,5.4,N,10.0,K,A*13
$GPRMC,142442.0,A,5139.926772,N,03914.670706,E,5.4,102.3,030316,,,A*63
$GPGSA,A,2,13,15,18,28,,,,,,,,,1.7,1.4,1.0*34
$GNGSA,A,2,13,15,18,28,,,,,,,,,1.7,1.4,1.0*2A
$GNGSA,A,2,65,72,74,82,,,,,,,,,1.7,1.4,1.0*20
$GPGSV,3,1,12,10,03,345,19,11,16,054,16,13,58,215,15,15,43,285,18*79
$GPGSV,3,2,12,17,45,146,16,18,09,314,26,19,20,172,16,20,04,257,13*77
$GPGSV,3,3,12,24,16,292,16,28,66,061,17,30,30,108,13,07,02,111,*71
$GLGSV,3,1,09,74,35,291,14,73,71,021,14,82,37,047,22,65,16,338,25*66
$GLGSV,3,2,09,83,37,123,14,81,03,011,7,71,20,229,14,72,35,286,13*5F
$GLGSV,3,3,09,84,02,164,*51
$GPGGA,142443.0,5139.926554,N,03914.673847,E,1,05,1.2,95.1,M,13.0,M,,*60
$GPVTG,100.2,T,100.2,M,5.5,N,10.2,K,A*10
$GPRMC,142443.0,A,5139.926554,N,03914.673847,E,5.5,100.2,030316,,,A*6F
$GPGSA,A,2,13,15,18,28,30,,,,,,,,1.5,1.2,0.9*3B
$GNGSA,A,2,13,15,18,28,30,,,,,,,,1.5,1.2,0.9*25
$GNGSA,A,2,65,72,74,82,,,,,,,,,1.5,1.2,0.9*2C
$GPGSV,4,1,13,01,10,068,14,10,03,345,21,11,16,054,16,13,58,215,15*7A
$GPGSV,4,2,13,15,43,285,18,17,45,146,16,18,09,314,27,19,20,172,19*7E
$GPGSV,4,3,13,20,04,257,13,24,16,292,15,28,66,061,17,30,30,108,13*74
$GPGSV,4,4,13,07,02,111,*4F
$GLGSV,3,1,09,74,35,291,14,73,71,021,14,82,37,047,26,65,16,338,20*67
$GLGSV,3,2,09,83,37,123,14,81,03,011,7,71,20,229,14,72,35,286,13*5F
$GLGSV,3,3,09,84,02,164,*51
$GPGGA,142444.0,5139.926377,N,03914.676885,E,1,05,1.0,95.2,M,13.0,M,,*6A
$GPVTG,99.2,T,99.2,M,5.5,N,10.3,K,A*11
$GPRMC,142444.0,A,5139.926377,N,03914.676885,E,5.5,99.2,030316,,,A*55
$GPGSA,A,2,13,15,18,28,30,,,,,,,,1.4,1.0,0.9*38
$GNGSA,A,2,13,15,18,28,30,,,,,,,,1.4,1.0,0.9*26
$GNGSA,A,2,65,72,74,82,83,,,,,,,,1.4,1.0,0.9*24
$GPGSV,4,1,13,01,10,068,14,10,03,345,17,11,16,054,16,13,58,215,15*7F
$GPGSV,4,2,13,15,43,285,18,17,45,146,16,18,09,314,26,19,20,172,19*7F
$GPGSV,4,3,13,20,04,257,13,24,16,292,15,28,66,061,15,30,30,108,16*73
$GPGSV,4,4,13,07,02,111,*4F
$GLGSV,3,1,09,74,35,291,14,73,71,021,14,82,37,047,27,65,16,338,24*62
$GLGSV,3,2,09,83,37,123,14,81,03,011,7,71,20,229,13,72,35,286,13*58
$GLGSV,3,3,09,84,02,164,*51
$GPGGA,142445.0,5139.926333,N,03914.680137,E,1,05,0.9,94.0,M,13.0,M,,*69
$GPVTG,96.3,T,96.3,M,5.5,N,10.1,K,A*13
$GPRMC,142445.0,A,5139.926333,N,03914.680137,E,5.5,96.3,030316,,,A*53
$GPGSA,A,2,13,15,18,28,30,,,,,,,,1.2,0.9,0.9*36
$GNGSA,A,2,13,15,18,28,30,,,,,,,,1.2,0.9,0.9*28
$GNGSA,A,2,65,71,72,82,83,,,,,,,,1.2,0.9,0.9*2F
$GPGSV,4,1,13,01,10,068,16,10,03,345,21,11,16,054,16,13,58,215,20*7E
$GPGSV,4,2,13,15,43,285,17,17,45,146,16,18,09,314,27,19,20,172,19*71
