$GPGSV,4,1,13,01,68,255,15,03,40,279,17,11,49,219,18,14,37,056,16*71
$GPGSV,4,2,13,17,19,316,15,22,80,088,15,31,33,120,15,08,02,203,*71
$GPGSV,4,3,13,10,06,094,,12,03,026,,19,03,338,,23,07,224,*73
$GPGSV,4,4,13,25,,,*7C
$GLGSV,3,1,11,,,,31,86,23,330,21,79,26,098,13,69,61,046,21*59
$GLGSV,3,2,11,84,28,202,15,85,52,268,29,78,28,047,,70,49,277,*65
$GLGSV,3,3,11,77,03,000,,71,02,260,,68,12,070,*5C
$GPGGA,041822.6,5140.574740,N,03915.617870,E,1,07,1.0,179.4,M,13.0,M,,*5C
$GNGNS,041822.6,5140.574740,N,03915.617870,E,AA,11,1.0,179.4,13.0,,*6F
$GPVTG,149.5,T,149.5,M,6.0,N,11.2,K,A*17
$GPRMC,041822.6,A,5140.574740,N,03915.617870,E,6.0,149.5,140316,,,A*6F
$GPGSA,A,3,01,03,11,14,17,22,31,,,,,,2.0,1.0,1.8*3B
$GNGSA,A,3,01,03,11,14,17,22,31,,,,,,2.0,1.0,1.8*25
$GNGSA,A,3,86,79,84,85,,,,,,,,,2.0,1.0,1.8*27
$GPGSV,4,1,13,01,68,255,14,03,40,279,17,11,49,219,18,14,37,056,17*71
$GPGSV,4,2,13,17,19,316,15,22,80,088,17,31,33,120,15,08,02,203,*73
$GPGSV,4,3,13,10,06,094,,12,03,026,,19,03,338,,23,07,224,*73
$GPGSV,4,4,13,25,,,*7C
$GLGSV,3,1,11,,,,31,86,23,330,21,79,26,098,12,69,61,046,21*58
$GLGSV,3,2,11,84,28,202,15,85,52,268,29,78,28,047,,70,49,277,*65
$GLGSV,3,3,11,77,03,000,,71,02,260,,68,12,070,*5C
$GPGGA,041823.6,5140.576495,N,03915.617959,E,1,07,1.0,173.6,M,13.0,M,,*56
$GNGNS,041823.6,5140.576495,N,03915.617959,E,AA,11,1.0,173.6,13.0,,*65
$GPVTG,171.3,T,171.3,M,5.8,N,10.8,K,A*17
$GPRMC,041823.6,A,5140.576495,N,03915.617959,E,5.8,171.3,140316,,,A*6B
$GPGSA,A,3,01,03,11,14,17,22,31,,,,,,2.0,1.0,1.8*3B
$GNGSA,A,3,01,03,11,14,17,22,31,,,,,,2.0,1.0,1.8*25
$GNGSA,A,3,86,79,84,85,,,,,,,,,2.0,1.0,1.8*27
$GPGSV,4,1,13,01,68,255,14,03,40,279,18,11,49,219,18,14,37,056,17*7E
$GPGSV,4,2,13,17,19,316,14,22,80,088,18,31,33,120,14,08,02,203,*7C
$GPGSV,4,3,13,10,06,094,,12,03,026,,19,03,338,,23,07,224,*73
$GPGSV,4,4,13,25,,,*7C
$GLGSV,3,1,11,,,,31,86,23,330,21,79,26,098,12,69,61,046,21*58
$GLGSV,3,2,11,84,28,202,15,85,52,267,29,78,28,047,,70,49,277,*6A
$GLGSV,3,3,11,77,03,000,,71,02,260,,68,12,070,*5C
$GPGGA,041824.6,5140.580280,N,03915.618847,E,1,07,1.2,95.0,M,13.0,M,,*66
$GNGNS,041824.6,5140.580280,N,03915.618847,E,AA,09,1.2,95.0,13.0,,*5C
$GPVTG,167.4,T,167.4,M,6.2,N,11.5,K,A*12
$GPRMC,041824.6,A,5140.580280,N,03915.618847,E,6.2,167.4,140316,,,A*6F
$GPGSA,A,3,01,03,11,14,17,22,31,,,,,,2.4,1.2,2.1*37
$GNGSA,A,3,01,03,11,14,17,22,31,,,,,,2.4,1.2,2.1*29
$GNGSA,A,3,79,84,,,,,,,,,,,2.4,1.2,2.1*28
$GPGSV,4,1,13,01,68,255,15,03,40,279,18,11,49,219,18,14,37,056,17*7F
$GPGSV,4,2,13,17,19,316,14,22,80,088,18,31,33,120,14,08,02,203,*7C
$GPGSV,4,3,13,10,06,094,,12,03,026,,19,03,338,,23,07,224,*73
$GPGSV,4,4,13,25,,,*7C
$GLGSV,3,1,11,,,,31,86,23,330,21,79,26,098,12,69,61,046,21*58
$GLGSV,3,2,11,84,28,202,15,85,52,267,29,78,28,047,,70,49,277,*6A
$GLGSV,3,3,11,77,03,000,,71,02,260,,68,12,070,*5C
$GPGGA,041825.6,5140.578314,N,03915.618912,E,1,07,1.2,96.4,M,13.0,M,,*6A
$GNGNS,041825.6,5140.578314,N,03915.618912,E,AA,09,1.2,96.4,13.0,,*50
$GPVTG,153.4,T,153.4,M,7.3,N,13.4,K,A*11
$GPRMC,041825.6,A,5140.578314,N,03915.618912,E,7.3,153.4,140316,,,A*63
$GPGSA,A,3,01,03,11,14,17,22,31,,,,,,2.4,1.2,2.1*37
$GNGSA,A,3,01,03,11,14,17,22,31,,,,,,2.4,1.2,2.1*29
$GNGSA,A,3,79,84,,,,,,,,,,,2.4,1.2,2.1*28
$GPGSV,4,1,13,01,68,255,15,03,40,279,19,11,49,219,18,14,37,056,15*7C
$GPGSV,4,2,13,17,19,316,14,22,80,088,17,31,33,120,14,08,02,203,*73
$GPGSV,4,3,13,10,06,094,,12,03,026,,19,03,338,,23,07,224,*73
$GPGSV,4,4,13,25,,,*7C
$GLGSV,3,1,11,,,,31,86,23,330,21,79,26,098,12,69,61,046,21*58
$GLGSV,3,2,11,84,28,202,15,85,52,267,15,78,28,047,,70,49,277,*65
$GLGSV,3,3,11,77,03,000,,71,02,260,,68,12,070,*5C
$GPGGA,041826.6,,,,,0,,,,,,,,*77
$GNGNS,041826.6,,,,,NN,,,,,,*42
$GPVTG,,T,,M,,N,,K,N*2C
$GPRMC,,V,,,,,,,,,,N*53
$GPGSA,A,1,,,,,,,,,,,,,,,*1E
$GNGSA,A,1,,,,,,,,,,,,,,,*00
$GPGSV,4,1,13,01,68,255,15,03,40,279,19,11,49,219,18,14,37,056,15*7C
$GPGSV,4,2,13,17,19,316,14,22,80,088,22,31,33,120,13,08,02,203,*72
$GPGSV,4,3,13,10,06,094,,12,03,026,,19,03,338,,23,07,224,*73
$GPGSV,4,4,13,25,,,*7C
$GLGSV,3,1,11,,,,31,86,23,330,21,79,26,098,12,69,61,046,21*58
$GLGSV,3,2,11,84,28,202,15,85,52,267,15,78,28,047,,70,49,277,*65
$GLGSV,3,3,11,77,03,000,,71,02,260,,68,12,070,*5C
$GPGGA,041827.6,,,,,0,,,,,,,,*76
$GNGNS,041827.6,,,,,NN,,,,,,*43
$GPVTG,,T,,M,,N,,K,N*2C
$GPRMC,,V,,,,,,,,,,N*53
$GPGSA,A,1,,,,,,,,,,,,,,,*1E
$GNGSA,A,1,,,,,,,,,,,,,,,*00
$GPGSV,4,1,13,01,68,255,15,03,40,279,17,11,49,219,18,14,37,056,15*72
$GPGSV,4,2,13,17,19,316,13,22,80,088,20,31,33,120,13,08,02,203,*77
$GPGSV,4,3,13,10,06,094,,12,03,026,,19,03,338,,23,07,224,*73
$GPGSV,4,4,13,25,,,*7C
$GLGSV,3,1,11,,,,31,86,23,330,21,79,26,098,12,69,61,046,21*58
$GLGSV,3,2,11,84,28,202,15,85,52,267,15,78,28,047,,70,49,277,*65
$GLGSV,3,3,11,77,03,000,,71,02,260,,68,12,070,*5C
$GPGGA,041828.6,,,,,0,,,,,,,,*79
$GNGNS,041828.6,,,,,NN,,,,,,*4C
$GPVTG,,T,,M,,N,,K,N*2C
$GPRMC,,V,,,,,,,,,,N*53
$GPGSA,A,1,,,,,,,,,,,,,,,*1E
$GNGSA,A,1,,,,,,,,,,,,,,,*00
$GPGSV,4,1,13,01,68,255,15,03,40,279,17,11,49,219,18,14,37,056,15*72
$GPGSV,4,2,13,17,19,316,13,22,80,088,20,31,33,120,13,08,02,203,*77
$GPGSV,4,3,13,10,06,094,,12,03,026,,19,03,338,,23,07,224,*73
$GPGSV,4,4,13,25,,,*7C
$GLGSV,3,1,11,,,,31,86,23,330,7,79,26,098,12,69,61,046,21*6C
$GLGSV,3,2,11,84,28,202,15,85,52,267,15,78,28,047,,70,49,277,*65
$GLGSV,3,3,11,77,03,000,,71,02,260,,68,12,070,*5C
$GPGGA,041829.6,,,,,0,,,,,,,,*78
$GNGNS,041829.6,,,,,NN,,,,,,*4D
$GPVTG,,T,,M,,N,,K,N*2C
$GPRMC,,V,,,,,,,,,,N*53
$GPGSA,A,1,,,,,,,,,,,,,,,*1E
$GNGSA,A,1,,,,,,,,,,,,,,,*00
$GPGSV,4,1,13,01,68,255,15,03,40,279,17,11,49,219,10,14,37,056,19*76
$GPGSV,4,2,13,17,19,316,13,22,80,088,20,31,33,120,13,08,02,203,*77
$GPGSV,4,3,13,10,06,094,,12,03,026,,19,03,338,,23,07,224,*73
$GPGSV,4,4,13,25,,,*7C
$GLGSV,3,1,11,,,,31,86,23,330,7,79,26,098,12,69,61,046,21*6C
$GLGSV,3,2,11,84,28,202,15,85,52,267,15,78,28,047,,70,49,277,*65
$GLGSV,3,3,11,77,03,000,,71,02,260,,68,12,070,*5C
$GPGGA,041830.6,,,,,0,,,,,,,,*70
$GNGNS,041830.6,,,,,NN,,,,,,*45
$GPVTG,,T,,M,,N,,K,N*2C
$GPRMC,,V,,,,,,,,,,N*53
$GPGSA,A,1,,,,,,,,,,,,,,,*1E
$GNGSA,A,1,,,,,,,,,,,,,,,*00
$GPGSV,4,1,13,01,68,255,15,03,40,279,17,11,49,219,10,14,37,056,18*77
$GPGSV,4,2,13,17,19,316,13,22,80,088,20,31,33,120,13,08,02,203,*77
$GPGSV,4,3,13,10,06,094,,12,03,026,,19,03,338,,23,07,224,*73
$GPGSV,4,4,13,25,,,*7C
$GLGSV,3,1,11,,,,31,86,23,330,7,79,26,098,12,69,61,046,21*6C
$GLGSV,3,2,11,84,28,202,15,85,52,267,15,78,28,047,,70,49,277,*65
$GLGSV,3,3,11,77,03,000,,71,02,260,,68,12,070,*5C
$GPGGA,041831.6,,,,,0,,,,,,,,*71
$GNGNS,041831.6,,,,,NN,,,,,,*44
$GPVTG,,T,,M,,N,,K,N*2C
$GPRMC,,V,,,,,,,,,,N*53
$GPGSA,A,1,,,,,,,,,,,,,,,*1E
$GNGSA,A,1,,,,,,,,,,,,,,,*00
$GPGSV,4,1,13,01,68,255,15,03,40,279,18,11,49,219,16,14,37,056,17*71
$GPGSV,4,2,13,17,19,316,13,22,80,088,21,31,33,120,13,08,02,203,*76
$GPGSV,4,3,13,10,06,094,,12,03,026,,19,03,338,,23,07,224,*73
$GPGSV,4,4,13,25,,,*7C
$GLGSV,3,1,11,,,,31,86,23,330,7,79,26,098,12,69,61,046,21*6C
$GLGSV,3,2,11,84,28,202,15,85,52,267,15,78,28,047,,70,49,277,*65
$GLGSV,3,3,11,77,03,000,,71,02,260,,68,12,070,*5C
$GPGGA,041832.6,,,,,0,,,,,,,,*72
$GNGNS,041832.6,,,,,NN,,,,,,*47
$GPVTG,,T,,M,,N,,K,N*2C
$GPRMC,,V,,,,,,,,,,N*53
$GPGSA,A,1,,,,,,,,,,,,,,,*1E
$GNGSA,A,1,,,,,,,,,,,,,,,*00
$GPGSV,4,1,13,01,68,255,15,03,40,279,19,11,49,219,16,14,37,056,20*74
$GPGSV,4,2,13,17,19,316,13,22,80,088,21,31,33,120,13,08,02,203,*76
$GPGSV,4,3,13,10,06,094,,12,03,026,,19,03,338,,23,07,224,*73
$GPGSV,4,4,13,25,,,*7C
$GLGSV,3,1,10,,,,31,86,23,330,7,79,26,098,12,84,28,202,15*66
$GLGSV,3,2,10,85,52,267,15,78,28,047,,70,49,277,,77,03,000,*65
$GLGSV,3,3,10,71,02,260,,68,12,070,*6E
$GPGGA,041833.6,,,,,0,,,,,,,,*73
$GNGNS,041833.6,,,,,NN,,,,,,*46
$GPVTG,,T,,M,,N,,K,N*2C
$GPRMC,,V,,,,,,,,,,N*53
$GPGSA,A,1,,,,,,,,,,,,,,,*1E
$GNGSA,A,1,,,,,,,,,,,,,,,*00
$GPGSV,4,1,13,01,68,255,15,03,40,279,18,11,49,219,16,14,37,056,21*74
$GPGSV,4,2,13,17,19,316,13,22,80,088,22,31,33,120,13,08,02,203,*75
$GPGSV,4,3,13,10,06,094,,12,03,026,,19,03,338,,23,07,224,*73
$GPGSV,4,4,13,25,,,*7C
$GLGSV,3,1,11,,,,31,86,23,330,7,79,26,098,12,84,28,202,15*67
$GLGSV,3,2,11,85,52,267,15,78,28,047,,70,49,277,,77,03,000,*64
$GLGSV,3,3,11,69,61,046,,71,02,260,,68,12,070,*55
$GPGGA,041834.6,,,,,0,,,,,,,,*74
$GNGNS,041834.6,,,,,NN,,,,,,*41
$GPVTG,,T,,M,,N,,K,N*2C
$GPRMC,,V,,,,,,,,,,N*53
$GPGSA,A,1,,,,,,,,,,,,,,,*1E
$GNGSA,A,1,,,,,,,,,,,,,,,*00
$GPGSV,4,1,13,01,68,255,15,03,40,279,19,11,49,219,19,14,37,056,18*70
$GPGSV,4,2,13,17,19,316,13,22,80,088,20,31,33,120,13,08,02,203,*77
$GPGSV,4,3,13,10,06,094,,12,03,026,,19,03,338,,23,07,224,*73
$GPGSV,4,4,13,25,,,*7C
$GLGSV,3,1,11,,,,31,86,23,330,7,79,26,098,12,84,28,202,15*67
$GLGSV,3,2,11,85,52,267,15,78,28,047,,70,49,277,,77,03,000,*64
$GLGSV,3,3,11,69,61,046,,71,02,260,,68,12,070,*55
$GPGGA,041835.6,,,,,0,,,,,,,,*75
$GNGNS,041835.6,,,,,NN,,,,,,*40
$GPVTG,,T,,M,,N,,K,N*2C
$GPRMC,,V,,,,,,,,,,N*53
$GPGSA,A,1,,,,,,,,,,,,,,,*1E
$GNGSA,A,1,,,,,,,,,,,,,,,*00
$GPGSV,4,1,13,01,68,255,12,03,40,279,18,11,49,219,18,14,37,056,18*77
$GPGSV,4,2,13,17,19,316,13,22,80,088,21,31,33,120,13,08,02,203,*76
$GPGSV,4,3,13,10,06,094,,12,03,026,,19,03,338,,23,07,224,*73
$GPGSV,4,4,13,25,,,*7C
$GLGSV,3,1,11,,,,31,86,23,330,7,79,26,098,12,84,28,202,15*67
$GLGSV,3,2,11,85,52,267,15,78,28,047,,70,49,277,,77,03,000,*64
$GLGSV,3,3,11,69,61,046,,71,02,260,,68,12,070,*55
$GPGGA,041836.6,,,,,0,,,,,,,,*76
$GNGNS,041836.6,,,,,NN,,,,,,*43
$GPVTG,,T,,M,,N,,K,N*2C
$GPRMC,,V,,,,,,,,,,N*53
$GPGSA,A,1,,,,,,,,,,,,,,,*1E
$GNGSA,A,1,,,,,,,,,,,,,,,*00
$GPGSV,4,1,13,01,68,255,18,03,40,279,20,11,49,219,20,14,37,056,18*7D
$GPGSV,4,2,13,17,19,316,13,22,80,088,20,31,33,120,13,08,02,203,*77
$GPGSV,4,3,13,10,06,094,,12,03,026,,19,03,338,,23,07,224,*73
$GPGSV,4,4,13,25,,,*7C
$GLGSV,3,1,11,,,,31,86,23,330,7,79,26,098,12,84,28,202,15*67
$GLGSV,3,2,11,85,52,267,15,78,28,047,,70,49,277,,77,03,000,*64
$GLGSV,3,3,11,69,61,046,,71,02,260,,68,12,070,*55
$GPGGA,041837.6,,,,,0,,,,,,,,*77
$GNGNS,041837.6,,,,,NN,,,,,,*42
$GPVTG,,T,,M,,N,,K,N*2C
$GPRMC,,V,,,,,,,,,,N*53
$GPGSA,A,1,,,,,,,,,,,,,,,*1E
$GNGSA,A,1,,,,,,,,,,,,,,,*00
$GPGSV,4,1,13,01,68,255,18,03,40,279,18,11,49,219,19,14,37,056,15*71
$GPGSV,4,2,13,17,19,316,13,22,80,088,20,31,33,120,13,08,02,203,*77
$GPGSV,4,3,13,10,06,094,,12,03,026,,19,03,338,,23,07,224,*73
$GPGSV,4,4,13,25,,,*7C
$GLGSV,3,1,11,,,,31,86,23,330,7,79,26,098,12,84,28,202,15*67
$GLGSV,3,2,11,85,52,267,15,78,28,047,,70,49,277,,77,03,000,*64
$GLGSV,3,3,11,69,61,046,,71,02,260,,68,12,070,*55
$GPGGA,041838.6,,,,,0,,,,,,,,*78
$GNGNS,041838.6,,,,,NN,,,,,,*4D
$GPVTG,,T,,M,,N,,K,N*2C
$GPRMC,,V,,,,,,,,,,N*53
$GPGSA,A,1,,,,,,,,,,,,,,,*1E
$GNGSA,A,1,,,,,,,,,,,,,,,*00
$GPGSV,4,1,13,01,68,255,18,03,40,279,19,11,49,219,19,14,37,056,15*70
$GPGSV,4,2,13,17,19,316,13,22,80,088,20,31,33,120,11,08,02,203,*75
$GPGSV,4,3,13,10,06,094,,12,03,026,,19,03,338,,23,07,224,*73
$GPGSV,4,4,13,25,,,*7C
$GLGSV,3,1,10,,,,31,86,23,330,7,79,26,098,12,85,52,267,15*69
$GLGSV,3,2,10,78,28,047,,70,49,277,,77,03,000,,69,61,046,*62
$GLGSV,3,3,10,71,02,260,,68,12,070,*6E
$GPGGA,041839.6,,,,,0,,,,,,,,*79
$GNGNS,041839.6,,,,,NN,,,,,,*4C
$GPVTG,,T,,M,,N,,K,N*2C
$GPRMC,,V,,,,,,,,,,N*53
$GPGSA,A,1,,,,,,,,,,,,,,,*1E
$GNGSA,A,1,,,,,,,,,,,,,,,*00
$GPGSV,4,1,13,01,68,255,20,03,40,279,18,11,49,219,19,14,37,056,15*7A
$GPGSV,4,2,13,17,19,316,13,22,80,088,19,31,33,120,11,08,02,203,*7F
$GPGSV,4,3,13,10,06,094,,12,03,026,,19,03,338,,23,07,224,*73